{
  "restaurants": {
    "3178": {
      "id": 3178,
      "name": "Morton's The Steakhouse - Toronto",
      "address": "4 Avenue Road at Prince Arthur",
      "city": "Toronto",
      "state": "ON",
      "area": "Toronto / SW Ontario",
      "postal_code": "M5R2E8",
      "country": "CA",
      "phone": "4169250648",
      "lat": 43.668943,
      "lng": -79.394218,
      "price": 4,
      "reserve_url": "http://www.opentable.com/single.aspx?rid=3178",
      "mobile_reserve_url": "http://mobile.opentable.com/opentable/?restId=3178",
      "image_url": "https://www.opentable.com/img/restimages/3178.jpg"
    },
    "3269": {
      "id": 3269,
      "name": "Crush Wine Bar",
      "address": "455 King Street West",
      "city": "Toronto",
      "state": "ON",
      "area": "Toronto / SW Ontario",
      "postal_code": "M5V1K4",
      "country": "CA",
      "phone": "4169771234x",
      "lat": 43.645225,
      "lng": -79.396179,
      "price": 3,
      "reserve_url": "http://www.opentable.com/single.aspx?rid=3269",
      "mobile_reserve_url": "http://mobile.opentable.com/opentable/?restId=3269",
      "image_url": "https://www.opentable.com/img/restimages/3269.jpg"
    },
    "3584": {
      "id": 3584,
      "name": "Reds Wine Tavern",
      "address": "77 Adelaide Street West",
      "city": "Toronto",
      "state": "ON",
      "area": "Toronto / SW Ontario",
      "postal_code": "M5X 1B1",
      "country": "CA",
      "phone": "4168627337x",
      "lat": 43.6497,
      "lng": -79.3813,
      "price": 3,
      "reserve_url": "http://www.opentable.com/single.aspx?rid=3584",
      "mobile_reserve_url": "http://mobile.opentable.com/opentable/?restId=3584",
      "image_url": "https://www.opentable.com/img/restimages/3584.jpg"
    },
    "3585": {
      "id": 3585,
      "name": "Far Niente",
      "address": "187 Bay Street",
      "city": "Toronto",
      "state": "ON",
      "area": "Toronto / SW Ontario",
      "postal_code": "M5L 1G5",
      "country": "CA",
      "phone": "4162149922x",
      "lat": 43.6473,
      "lng": -79.3796,
      "price": 3,
      "reserve_url": "http://www.opentable.com/single.aspx?rid=3585",
      "mobile_reserve_url": "http://mobile.opentable.com/opentable/?restId=3585",
      "image_url": "https://www.opentable.com/img/restimages/3585.jpg"
    },
    "3636": {
      "id": 3636,
      "name": "Bymark",
      "address": "66 Wellington St. W",
      "city": "Toronto",
      "state": "ON",
      "area": "Toronto / SW Ontario",
      "postal_code": "M5K 1J3",
      "country": "CA",
      "phone": "4167771144",
      "lat": 43.647292,
      "lng": -79.380004,
      "price": 3,
      "reserve_url": "http://www.opentable.com/single.aspx?rid=3636",
      "mobile_reserve_url": "http://mobile.opentable.com/opentable/?restId=3636",
      "image_url": "https://www.opentable.com/img/restimages/3636.jpg"
    },
    "3637": {
      "id": 3637,
      "name": "North 44",
      "address": "2537 Yonge St.",
      "city": "Toronto",
      "state": "ON",
      "area": "Toronto / SW Ontario",
      "postal_code": "M4P 2H9",
      "country": "CA",
      "phone": "4164874897x1",
      "lat": 43.713,
      "lng": -79.3996,
      "price": 3,
      "reserve_url": "http://www.opentable.com/single.aspx?rid=3637",
      "mobile_reserve_url": "http://mobile.opentable.com/opentable/?restId=3637",
      "image_url": "https://www.opentable.com/img/restimages/3637.jpg"
    },
    "3870": {
      "id": 3870,
      "name": "Canoe Restaurant and Bar",
      "address": "66 Wellington Street West",
      "city": "Toronto",
      "state": "ON",
      "area": "Toronto / SW Ontario",
      "postal_code": "M5K 1H6",
      "country": "CA",
      "phone": "4163640054x",
      "lat": 43.64736,
      "lng": -79.381123,
      "price": 4,
      "reserve_url": "http://www.opentable.com/single.aspx?rid=3870",
      "mobile_reserve_url": "http://mobile.opentable.com/opentable/?restId=3870",
      "image_url": "https://www.opentable.com/img/restimages/3870.jpg"
    },
    "3877": {
      "id": 3877,
      "name": "Ruth's Chris Steak House - Toronto",
      "address": "145 Richmond Street West",
      "city": "Toronto",
      "state": "ON",
      "area": "Toronto / SW Ontario",
      "postal_code": "M5H 2L2",
      "country": "CA",
      "phone": "4169551455x",
      "lat": 43.650297,
      "lng": -79.385393,
      "price": 3,
      "reserve_url": "http://www.opentable.com/single.aspx?rid=3877",
      "mobile_reserve_url": "http://mobile.opentable.com/opentable/?restId=3877",
      "image_url": "https://www.opentable.com/img/restimages/3877.jpg"
    },
    "4072": {
      "id": 4072,
      "name": "Blowfish Restaurant + Sake Bar",
      "address": "668 KING STREET WEST",
      "city": "Toronto",
      "state": "ON",
      "area": "Toronto / SW Ontario",
      "postal_code": "M5V 1M7",
      "country": "CA",
      "phone": "4168600606",
      "lat": 43.643933,
      "lng": -79.402581,
      "price": 3,
      "reserve_url": "http://www.opentable.com/single.aspx?rid=4072",
      "mobile_reserve_url": "http://mobile.opentable.com/opentable/?restId=4072",
      "image_url": "https://www.opentable.com/img/restimages/4072.jpg"
    },
    "4287": {
      "id": 4287,
      "name": "Adega Restaurante",
      "address": "33 Elm Street",
      "city": "Toronto",
      "state": "ON",
      "area": "Toronto / SW Ontario",
      "postal_code": "M5G 1H1",
      "country": "CA",
      "phone": "4169774338",
      "lat": 43.657489,
      "lng": -79.383322,
      "price": 3,
      "reserve_url": "http://www.opentable.com/single.aspx?rid=4287",
      "mobile_reserve_url": "http://mobile.opentable.com/opentable/?restId=4287",
      "image_url": "https://www.opentable.com/img/restimages/4287.jpg"
    },
    "4438": {
      "id": 4438,
      "name": "Pangaea Restaurant",
      "address": "1221 Bay Street",
      "city": "Toronto",
      "state": "ON",
      "area": "Toronto / SW Ontario",
      "postal_code": "M5R 3P5",
      "country": "CA",
      "phone": "4169202323",
      "lat": 43.670018,
      "lng": -79.389548,
      "price": 3,
      "reserve_url": "http://www.opentable.com/single.aspx?rid=4438",
      "mobile_reserve_url": "http://mobile.opentable.com/opentable/?restId=4438",
      "image_url": "https://www.opentable.com/img/restimages/4438.jpg"
    },
    "4671": {
      "id": 4671,
      "name": "Ki Modern Japanese + Bar - Toronto",
      "address": "181 Bay Street - BCE Place",
      "city": "Toronto",
      "state": "ON",
      "area": "Toronto / SW Ontario",
      "postal_code": "M5J 2T3",
      "country": "CA",
      "phone": "4163085888",
      "lat": 43.647173,
      "lng": -79.379639,
      "price": 4,
      "reserve_url": "http://www.opentable.com/single.aspx?rid=4671",
      "mobile_reserve_url": "http://mobile.opentable.com/opentable/?restId=4671",
      "image_url": "https://www.opentable.com/img/restimages/4671.jpg"
    },
    "5412": {
      "id": 5412,
      "name": "Hy's Steak House - Toronto",
      "address": "101-120 Adelaide Street W.",
      "city": "Toronto",
      "state": "ON",
      "area": "Toronto / SW Ontario",
      "postal_code": "M5H 1T1",
      "country": "CA",
      "phone": "4163646600",
      "lat": 43.649502,
      "lng": -79.382805,
      "price": 4,
      "reserve_url": "http://www.opentable.com/single.aspx?rid=5412",
      "mobile_reserve_url": "http://mobile.opentable.com/opentable/?restId=5412",
      "image_url": "https://www.opentable.com/img/restimages/5412.jpg"
    },
    "5757": {
      "id": 5757,
      "name": "Wildfire Steakhouse North York",
      "address": "3438 Yonge Street",
      "city": "Toronto",
      "state": "ON",
      "area": "Toronto / SW Ontario",
      "postal_code": "M4N 2N2",
      "country": "CA",
      "phone": "4164834800",
      "lat": 43.73365,
      "lng": -79.404401,
      "price": 3,
      "reserve_url": "http://www.opentable.com/single.aspx?rid=5757",
      "mobile_reserve_url": "http://mobile.opentable.com/opentable/?restId=5757",
      "image_url": "https://www.opentable.com/img/restimages/5757.jpg"
    },
    "5945": {
      "id": 5945,
      "name": "Splendido",
      "address": "88 Harbord Street",
      "city": "Toronto",
      "state": "ON",
      "area": "Toronto / SW Ontario",
      "postal_code": "M5S 1G5",
      "country": "CA",
      "phone": "4169297788",
      "lat": 43.663,
      "lng": -79.403,
      "price": 3,
      "reserve_url": "http://www.opentable.com/single.aspx?rid=5945",
      "mobile_reserve_url": "http://mobile.opentable.com/opentable/?restId=5945",
      "image_url": "https://www.opentable.com/img/restimages/5945.jpg"
    },
    "5970": {
      "id": 5970,
      "name": "Auberge du Pommier",
      "address": "4150 Yonge Street",
      "city": "Toronto",
      "state": "ON",
      "area": "Toronto / SW Ontario",
      "postal_code": "M2P 2C6",
      "country": "CA",
      "phone": "4162222220x",
      "lat": 43.746912,
      "lng": -79.407363,
      "price": 4,
      "reserve_url": "http://www.opentable.com/single.aspx?rid=5970",
      "mobile_reserve_url": "http://mobile.opentable.com/opentable/?restId=5970",
      "image_url": "https://www.opentable.com/img/restimages/5970.jpg"
    },
    "6060": {
      "id": 6060,
      "name": "CUBE",
      "address": "314 Queen St West",
      "city": "Toronto",
      "state": "ON",
      "area": "Toronto / SW Ontario",
      "postal_code": "M5V 2A2",
      "country": "CA",
      "phone": "4162630330x223",
      "lat": 43.649,
      "lng": -79.394,
      "price": 3,
      "reserve_url": "http://www.opentable.com/single.aspx?rid=6060",
      "mobile_reserve_url": "http://mobile.opentable.com/opentable/?restId=6060",
      "image_url": "https://www.opentable.com/img/restimages/6060.jpg"
    },
    "6076": {
      "id": 6076,
      "name": "Vertical Restaurant & Bar",
      "address": "100 King West / First Canadian Place",
      "city": "Toronto",
      "state": "ON",
      "area": "Toronto / SW Ontario",
      "postal_code": "M5X 1E1",
      "country": "CA",
      "phone": "4162142252x",
      "lat": 43.648621,
      "lng": -79.380357,
      "price": 3,
      "reserve_url": "http://www.opentable.com/single.aspx?rid=6076",
      "mobile_reserve_url": "http://mobile.opentable.com/opentable/?restId=6076",
      "image_url": "https://www.opentable.com/img/restimages/6076.jpg"
    },
    "6368": {
      "id": 6368,
      "name": "George Restaurant",
      "address": "111C Queen Street East",
      "city": "Toronto",
      "state": "ON",
      "area": "Toronto / SW Ontario",
      "postal_code": "M5C 1S2",
      "country": "CA",
      "phone": "4168636006x",
      "lat": 43.653464,
      "lng": -79.374398,
      "price": 4,
      "reserve_url": "http://www.opentable.com/single.aspx?rid=6368",
      "mobile_reserve_url": "http://mobile.opentable.com/opentable/?restId=6368",
      "image_url": "https://www.opentable.com/img/restimages/6368.jpg"
    },
    "6702": {
      "id": 6702,
      "name": "Cava",
      "address": "1560 Yonge St.",
      "city": "Toronto",
      "state": "ON",
      "area": "Toronto / SW Ontario",
      "postal_code": "M4T 2S9",
      "country": "CA",
      "phone": "4169799918x",
      "lat": 43.689841,
      "lng": -79.394811,
      "price": 3,
      "reserve_url": "http://www.opentable.com/single.aspx?rid=6702",
      "mobile_reserve_url": "http://mobile.opentable.com/opentable/?restId=6702",
      "image_url": "https://www.opentable.com/img/restimages/6702.jpg"
    },
    "7331": {
      "id": 7331,
      "name": "Globe Bistro",
      "address": "124 Danforth Avenue",
      "city": "Toronto",
      "state": "ON",
      "area": "Toronto / SW Ontario",
      "postal_code": "M4K1N1",
      "country": "CA",
      "phone": "4164662000x",
      "lat": 43.67639,
      "lng": -79.35791,
      "price": 3,
      "reserve_url": "http://www.opentable.com/single.aspx?rid=7331",
      "mobile_reserve_url": "http://mobile.opentable.com/opentable/?restId=7331",
      "image_url": "https://www.opentable.com/img/restimages/7331.jpg"
    },
    "7527": {
      "id": 7527,
      "name": "Jump Restaurant",
      "address": "Commerce Court East, 18 Wellington St. West",
      "city": "Toronto",
      "state": "ON",
      "area": "Toronto / SW Ontario",
      "postal_code": "M5L 1G4",
      "country": "CA",
      "phone": "4163633400x",
      "lat": 43.647646,
      "lng": -79.3784,
      "price": 3,
      "reserve_url": "http://www.opentable.com/single.aspx?rid=7527",
      "mobile_reserve_url": "http://mobile.opentable.com/opentable/?restId=7527",
      "image_url": "https://www.opentable.com/img/restimages/7527.jpg"
    },
    "11551": {
      "id": 11551,
      "name": "beerbistro",
      "address": "18 King St. E",
      "city": "Toronto",
      "state": "ON",
      "area": "Toronto / SW Ontario",
      "postal_code": "M5C 1C4",
      "country": "CA",
      "phone": "4168619872",
      "lat": 43.649425,
      "lng": -79.376791,
      "price": 2,
      "reserve_url": "http://www.opentable.com/single.aspx?rid=11551",
      "mobile_reserve_url": "http://mobile.opentable.com/opentable/?restId=11551",
      "image_url": "https://www.opentable.com/img/restimages/11551.jpg"
    },
    "11638": {
      "id": 11638,
      "name": "Arriba Restaurant",
      "address": "1 Blue Jays Way",
      "city": "Toronto",
      "state": "ON",
      "area": "Toronto / SW Ontario",
      "postal_code": "M5V 1J4",
      "country": "CA",
      "phone": "4163415045",
      "lat": 43.641668,
      "lng": -79.391732,
      "price": 2,
      "reserve_url": "http://www.opentable.com/single.aspx?rid=11638",
      "mobile_reserve_url": "http://mobile.opentable.com/opentable/?restId=11638",
      "image_url": "https://www.opentable.com/img/restimages/11638.jpg"
    },
    "11665": {
      "id": 11665,
      "name": "Trios Bistro Toronto",
      "address": "525 Bay Street",
      "city": "Toronto",
      "state": "ON",
      "area": "Toronto / SW Ontario",
      "postal_code": "M5G 2L2",
      "country": "CA",
      "phone": "4162049018",
      "lat": 43.65469,
      "lng": -79.383331,
      "price": 3,
      "reserve_url": "http://www.opentable.com/single.aspx?rid=11665",
      "mobile_reserve_url": "http://mobile.opentable.com/opentable/?restId=11665",
      "image_url": "https://www.opentable.com/img/restimages/11665.jpg"
    },
    "12229": {
      "id": 12229,
      "name": "Biff's Bistro",
      "address": "4 Front St. E",
      "city": "Toronto",
      "state": "ON",
      "area": "Toronto / SW Ontario",
      "postal_code": "M5E 1G4",
      "country": "CA",
      "phone": "4168600086x",
      "lat": 43.648154,
      "lng": -79.37436,
      "price": 3,
      "reserve_url": "http://www.opentable.com/single.aspx?rid=12229",
      "mobile_reserve_url": "http://mobile.opentable.com/opentable/?restId=12229",
      "image_url": "https://www.opentable.com/img/restimages/12229.jpg"
    },
    "12535": {
      "id": 12535,
      "name": "Rosewater",
      "address": "19 Toronto Street",
      "city": "Toronto",
      "state": "ON",
      "area": "Toronto / SW Ontario",
      "postal_code": "M5C 2R1",
      "country": "CA",
      "phone": "4162145888",
      "lat": 43.650197,
      "lng": -79.376221,
      "price": 3,
      "reserve_url": "http://www.opentable.com/single.aspx?rid=12535",
      "mobile_reserve_url": "http://mobile.opentable.com/opentable/?restId=12535",
      "image_url": "https://www.opentable.com/img/restimages/12535.jpg"
    },
    "12808": {
      "id": 12808,
      "name": "309 Dhaba Indian Excellence",
      "address": "309 King Street West (across from Hyatt on King)",
      "city": "Toronto",
      "state": "ON",
      "area": "Toronto / SW Ontario",
      "postal_code": "M5V 1J5",
      "country": "CA",
      "phone": "4167406622x",
      "lat": 43.646409,
      "lng": -79.390514,
      "price": 2,
      "reserve_url": "http://www.opentable.com/single.aspx?rid=12808",
      "mobile_reserve_url": "http://mobile.opentable.com/opentable/?restId=12808",
      "image_url": "https://www.opentable.com/img/restimages/12808.jpg"
    },
    "13231": {
      "id": 13231,
      "name": "ONE Restaurant",
      "address": "116 Yorkville Avenue",
      "city": "Toronto",
      "state": "ON",
      "area": "Toronto / SW Ontario",
      "postal_code": "M5R 1C2",
      "country": "CA",
      "phone": "4169619600",
      "lat": 43.670754,
      "lng": -79.393066,
      "price": 4,
      "reserve_url": "http://www.opentable.com/single.aspx?rid=13231",
      "mobile_reserve_url": "http://mobile.opentable.com/opentable/?restId=13231",
      "image_url": "https://www.opentable.com/img/restimages/13231.jpg"
    },
    "13774": {
      "id": 13774,
      "name": "Tappo",
      "address": "55 Mill Street",
      "city": "Toronto",
      "state": "ON",
      "area": "Toronto / SW Ontario",
      "postal_code": "M5A 3C4",
      "country": "CA",
      "phone": "6474301111",
      "lat": 43.650526,
      "lng": -79.36084,
      "price": 2,
      "reserve_url": "http://www.opentable.com/single.aspx?rid=13774",
      "mobile_reserve_url": "http://mobile.opentable.com/opentable/?restId=13774",
      "image_url": "https://www.opentable.com/img/restimages/13774.jpg"
    },
    "14218": {
      "id": 14218,
      "name": "Amaya the Indian room",
      "address": "1701 Bayview Avenue",
      "city": "Toronto",
      "state": "ON",
      "area": "Toronto / SW Ontario",
      "postal_code": "M4G 2C1",
      "country": "CA",
      "phone": "4163223270",
      "lat": 43.707887,
      "lng": -79.375979,
      "price": 3,
      "reserve_url": "http://www.opentable.com/single.aspx?rid=14218",
      "mobile_reserve_url": "http://mobile.opentable.com/opentable/?restId=14218",
      "image_url": "https://www.opentable.com/img/restimages/14218.jpg"
    },
    "14806": {
      "id": 14806,
      "name": "Il Fornello on King",
      "address": "214 King St. West",
      "city": "Toronto",
      "state": "ON",
      "area": "Toronto / SW Ontario",
      "postal_code": "M5H 3S6",
      "country": "CA",
      "phone": "4169772855",
      "lat": 43.647429,
      "lng": -79.386774,
      "price": 3,
      "reserve_url": "http://www.opentable.com/single.aspx?rid=14806",
      "mobile_reserve_url": "http://mobile.opentable.com/opentable/?restId=14806",
      "image_url": "https://www.opentable.com/img/restimages/14806.jpg"
    },
    "16069": {
      "id": 16069,
      "name": "Jacobs & Co. Steakhouse",
      "address": "12 Brant Street",
      "city": "Toronto",
      "state": "ON",
      "area": "Toronto / SW Ontario",
      "postal_code": "M5V 2M1",
      "country": "CA",
      "phone": "4163660200",
      "lat": 43.645309,
      "lng": -79.397761,
      "price": 4,
      "reserve_url": "http://www.opentable.com/single.aspx?rid=16069",
      "mobile_reserve_url": "http://mobile.opentable.com/opentable/?restId=16069",
      "image_url": "https://www.opentable.com/img/restimages/16069.jpg"
    },
    "16198": {
      "id": 16198,
      "name": "Brassaii",
      "address": "461 King St. W",
      "city": "Toronto",
      "state": "ON",
      "area": "Toronto / SW Ontario",
      "postal_code": "M5V 1K7",
      "country": "CA",
      "phone": "4165984730x",
      "lat": 43.645188,
      "lng": -79.39637,
      "price": 3,
      "reserve_url": "http://www.opentable.com/single.aspx?rid=16198",
      "mobile_reserve_url": "http://mobile.opentable.com/opentable/?restId=16198",
      "image_url": "https://www.opentable.com/img/restimages/16198.jpg"
    },
    "17146": {
      "id": 17146,
      "name": "Harbour Sixty",
      "address": "60 Harbour Street",
      "city": "Toronto",
      "state": "ON",
      "area": "Toronto / SW Ontario",
      "postal_code": "M5J 1B7",
      "country": "CA",
      "phone": "4167772111",
      "lat": 43.642422,
      "lng": -79.37642,
      "price": 4,
      "reserve_url": "http://www.opentable.com/single.aspx?rid=17146",
      "mobile_reserve_url": "http://mobile.opentable.com/opentable/?restId=17146",
      "image_url": "https://www.opentable.com/img/restimages/17146.jpg"
    },
    "17287": {
      "id": 17287,
      "name": "Toula Restaurant",
      "address": "1 Harbour Square",
      "city": "Toronto",
      "state": "ON",
      "area": "Toronto / SW Ontario",
      "postal_code": "M5J 1A6",
      "country": "CA",
      "phone": "4167772002",
      "lat": 43.63994,
      "lng": -79.379968,
      "price": 3,
      "reserve_url": "http://www.opentable.com/single.aspx?rid=17287",
      "mobile_reserve_url": "http://mobile.opentable.com/opentable/?restId=17287",
      "image_url": "https://www.opentable.com/img/restimages/17287.jpg"
    },
    "17740": {
      "id": 17740,
      "name": "Forget About It Supper Club",
      "address": "325 King Street West",
      "city": "Toronto",
      "state": "ON",
      "area": "Toronto / SW Ontario",
      "postal_code": "M5V 1J5",
      "country": "CA",
      "phone": "4165999909",
      "lat": 43.646288,
      "lng": -79.391066,
      "price": 2,
      "reserve_url": "http://www.opentable.com/single.aspx?rid=17740",
      "mobile_reserve_url": "http://mobile.opentable.com/opentable/?restId=17740",
      "image_url": "https://www.opentable.com/img/restimages/17740.jpg"
    },
    "17821": {
      "id": 17821,
      "name": "Bangkok Garden",
      "address": "18 Elm Street",
      "city": "Toronto",
      "state": "ON",
      "area": "Toronto / SW Ontario",
      "postal_code": "M5G 1G7",
      "country": "CA",
      "phone": "4169776748x",
      "lat": 43.657593,
      "lng": -79.382813,
      "price": 2,
      "reserve_url": "http://www.opentable.com/single.aspx?rid=17821",
      "mobile_reserve_url": "http://mobile.opentable.com/opentable/?restId=17821",
      "image_url": "https://www.opentable.com/img/restimages/17821.jpg"
    },
    "17869": {
      "id": 17869,
      "name": "Annona At The Park Hyatt Toronto",
      "address": "4 Avenue Road",
      "city": "Toronto",
      "state": "ON",
      "area": "Toronto / SW Ontario",
      "postal_code": "M5R 2E8",
      "country": "CA",
      "phone": "4163241567x",
      "lat": 43.668944,
      "lng": -79.394218,
      "price": 3,
      "reserve_url": "http://www.opentable.com/single.aspx?rid=17869",
      "mobile_reserve_url": "http://mobile.opentable.com/opentable/?restId=17869",
      "image_url": "https://www.opentable.com/img/restimages/17869.jpg"
    },
    "17893": {
      "id": 17893,
      "name": "Kamasutra Indian Restaurant and Wine Bar",
      "address": "1522 Bayview Avenue",
      "city": "Toronto",
      "state": "ON",
      "area": "Toronto / SW Ontario",
      "postal_code": "M4G 3B4",
      "country": "CA",
      "phone": "4164894899",
      "lat": 43.704177,
      "lng": -79.374561,
      "price": 3,
      "reserve_url": "http://www.opentable.com/single.aspx?rid=17893",
      "mobile_reserve_url": "http://mobile.opentable.com/opentable/?restId=17893",
      "image_url": "https://www.opentable.com/img/restimages/17893.jpg"
    },
    "17980": {
      "id": 17980,
      "name": "Pure Spirits",
      "address": "17 Tank House Lane",
      "city": "Toronto",
      "state": "ON",
      "area": "Toronto / SW Ontario",
      "postal_code": "M5A 3C4",
      "country": "CA",
      "phone": "4163615859",
      "lat": 43.650716,
      "lng": -79.357675,
      "price": 3,
      "reserve_url": "http://www.opentable.com/single.aspx?rid=17980",
      "mobile_reserve_url": "http://mobile.opentable.com/opentable/?restId=17980",
      "image_url": "https://www.opentable.com/img/restimages/17980.jpg"
    },
    "17983": {
      "id": 17983,
      "name": "El Catrin",
      "address": "18 Tank House Lane",
      "city": "Toronto",
      "state": "ON",
      "area": "Toronto / SW Ontario",
      "postal_code": "M5A 3C4",
      "country": "CA",
      "phone": "4162032121x",
      "lat": 43.650741,
      "lng": -79.358017,
      "price": 3,
      "reserve_url": "http://www.opentable.com/single.aspx?rid=17983",
      "mobile_reserve_url": "http://mobile.opentable.com/opentable/?restId=17983",
      "image_url": "https://www.opentable.com/img/restimages/17983.jpg"
    },
    "17986": {
      "id": 17986,
      "name": "Archeo",
      "address": "31 Trinity St",
      "city": "Toronto",
      "state": "ON",
      "area": "Toronto / SW Ontario",
      "postal_code": "M5A 3C4",
      "country": "CA",
      "phone": "4168159898x",
      "lat": 43.650828,
      "lng": -79.359789,
      "price": 2,
      "reserve_url": "http://www.opentable.com/single.aspx?rid=17986",
      "mobile_reserve_url": "http://mobile.opentable.com/opentable/?restId=17986",
      "image_url": "https://www.opentable.com/img/restimages/17986.jpg"
    },
    "17989": {
      "id": 17989,
      "name": "FOUR",
      "address": "187 Bay Street",
      "city": "Toronto",
      "state": "ON",
      "area": "Toronto / SW Ontario",
      "postal_code": "M5L 1G5",
      "country": "CA",
      "phone": "4163681444",
      "lat": 43.647607,
      "lng": -79.37968,
      "price": 3,
      "reserve_url": "http://www.opentable.com/single.aspx?rid=17989",
      "mobile_reserve_url": "http://mobile.opentable.com/opentable/?restId=17989",
      "image_url": "https://www.opentable.com/img/restimages/17989.jpg"
    },
    "18358": {
      "id": 18358,
      "name": "Bardi's Steakhouse",
      "address": "56 York St.",
      "city": "Toronto",
      "state": "ON",
      "area": "Toronto / SW Ontario",
      "postal_code": "M5J 1S8",
      "country": "CA",
      "phone": "4163669211",
      "lat": 43.645754,
      "lng": -79.382614,
      "price": 3,
      "reserve_url": "http://www.opentable.com/single.aspx?rid=18358",
      "mobile_reserve_url": "http://mobile.opentable.com/opentable/?restId=18358",
      "image_url": "https://www.opentable.com/img/restimages/18358.jpg"
    },
    "19474": {
      "id": 19474,
      "name": "Matahari Bar & Grill",
      "address": "39 Baldwin Street",
      "city": "Toronto",
      "state": "ON",
      "area": "Toronto / SW Ontario",
      "postal_code": "M5T 1L1",
      "country": "CA",
      "phone": "4165962832",
      "lat": 43.655959,
      "lng": -79.393684,
      "price": 3,
      "reserve_url": "http://www.opentable.com/single.aspx?rid=19474",
      "mobile_reserve_url": "http://mobile.opentable.com/opentable/?restId=19474",
      "image_url": "https://www.opentable.com/img/restimages/19474.jpg"
    },
    "20515": {
      "id": 20515,
      "name": "Azure Restaurant @ the Intercontinental Toronto Centre",
      "address": "225 Front St. West",
      "city": "Toronto",
      "state": "ON",
      "area": "Toronto / SW Ontario",
      "postal_code": "M5V 2X3",
      "country": "CA",
      "phone": "416-597-8142",
      "lat": 43.644574,
      "lng": -79.385883,
      "price": 2,
      "reserve_url": "http://www.opentable.com/single.aspx?rid=20515",
      "mobile_reserve_url": "http://mobile.opentable.com/opentable/?restId=20515",
      "image_url": "https://www.opentable.com/img/restimages/20515.jpg"
    },
    "20680": {
      "id": 20680,
      "name": "Canyon Creek - Airport",
      "address": "25 Carlson Ct.",
      "city": "Toronto",
      "state": "ON",
      "area": "Toronto / SW Ontario",
      "postal_code": "M9W 6A2",
      "country": "CA",
      "phone": "4162131162x",
      "lat": 43.689568,
      "lng": -79.586604,
      "price": 3,
      "reserve_url": "http://www.opentable.com/single.aspx?rid=20680",
      "mobile_reserve_url": "http://mobile.opentable.com/opentable/?restId=20680",
      "image_url": "https://www.opentable.com/img/restimages/20680.jpg"
    },
    "20815": {
      "id": 20815,
      "name": "Old Mill Toronto",
      "address": "21 Old Mill Road",
      "city": "Toronto",
      "state": "ON",
      "area": "Toronto / SW Ontario",
      "postal_code": "M8X 1G5",
      "country": "CA",
      "phone": "4162072020x",
      "lat": 43.651188,
      "lng": -79.493677,
      "price": 3,
      "reserve_url": "http://www.opentable.com/single.aspx?rid=20815",
      "mobile_reserve_url": "http://mobile.opentable.com/opentable/?restId=20815",
      "image_url": "https://www.opentable.com/img/restimages/20815.jpg"
    },
    "20818": {
      "id": 20818,
      "name": "Nota Bene",
      "address": "180 Queen Street West",
      "city": "Toronto",
      "state": "ON",
      "area": "Toronto / SW Ontario",
      "postal_code": "M5V 3X3",
      "country": "CA",
      "phone": "4169776400x",
      "lat": 43.650648,
      "lng": -79.387959,
      "price": 3,
      "reserve_url": "http://www.opentable.com/single.aspx?rid=20818",
      "mobile_reserve_url": "http://mobile.opentable.com/opentable/?restId=20818",
      "image_url": "https://www.opentable.com/img/restimages/20818.jpg"
    },
    "21301": {
      "id": 21301,
      "name": "Spice Route Asian Bistro & Bar",
      "address": "499 King Street West",
      "city": "Toronto",
      "state": "ON",
      "area": "Toronto / SW Ontario",
      "postal_code": "M5V 1K4",
      "country": "CA",
      "phone": "4168491808",
      "lat": 43.644945,
      "lng": -79.397578,
      "price": 2,
      "reserve_url": "http://www.opentable.com/single.aspx?rid=21301",
      "mobile_reserve_url": "http://mobile.opentable.com/opentable/?restId=21301",
      "image_url": "https://www.opentable.com/img/restimages/21301.jpg"
    },
    "21307": {
      "id": 21307,
      "name": "Scaramouche Restaurant",
      "address": "1 Benvenuto Place",
      "city": "Toronto",
      "state": "ON",
      "area": "Toronto / SW Ontario",
      "postal_code": "M4V 2L1",
      "country": "CA",
      "phone": "4169618011",
      "lat": 43.68207,
      "lng": -79.40041,
      "price": 4,
      "reserve_url": "http://www.opentable.com/single.aspx?rid=21307",
      "mobile_reserve_url": "http://mobile.opentable.com/opentable/?restId=21307",
      "image_url": "https://www.opentable.com/img/restimages/21307.jpg"
    },
    "21820": {
      "id": 21820,
      "name": "Victoria's Restaurant @ The King Edward Hotel",
      "address": "37 King Street East",
      "city": "Toronto",
      "state": "ON",
      "area": "Toronto / SW Ontario",
      "postal_code": "M5C 1E9",
      "country": "CA",
      "phone": "4168634125",
      "lat": 43.649565,
      "lng": -79.376051,
      "price": 2,
      "reserve_url": "http://www.opentable.com/single.aspx?rid=21820",
      "mobile_reserve_url": "http://mobile.opentable.com/opentable/?restId=21820",
      "image_url": "https://www.opentable.com/img/restimages/21820.jpg"
    },
    "22156": {
      "id": 22156,
      "name": "Mildred's Temple Kitchen",
      "address": "85 Hanna Avenue",
      "city": "Toronto",
      "state": "ON",
      "area": "Toronto / SW Ontario",
      "postal_code": "M6K 3S3",
      "country": "CA",
      "phone": "4165885695x",
      "lat": 43.639407,
      "lng": -79.419887,
      "price": 2,
      "reserve_url": "http://www.opentable.com/single.aspx?rid=22156",
      "mobile_reserve_url": "http://mobile.opentable.com/opentable/?restId=22156",
      "image_url": "https://www.opentable.com/img/restimages/22156.jpg"
    },
    "22474": {
      "id": 22474,
      "name": "Noce Restaurant",
      "address": "875 Queen Street West",
      "city": "Toronto",
      "state": "ON",
      "area": "Toronto / SW Ontario",
      "postal_code": "M6J 1G5",
      "country": "CA",
      "phone": "4165043463",
      "lat": 43.64573,
      "lng": -79.411306,
      "price": 3,
      "reserve_url": "http://www.opentable.com/single.aspx?rid=22474",
      "mobile_reserve_url": "http://mobile.opentable.com/opentable/?restId=22474",
      "image_url": "https://www.opentable.com/img/restimages/22474.jpg"
    },
    "22612": {
      "id": 22612,
      "name": "Sidecar",
      "address": "577 College St.",
      "city": "Toronto",
      "state": "ON",
      "area": "Toronto / SW Ontario",
      "postal_code": "M6G 1B2",
      "country": "CA",
      "phone": "4165367000x",
      "lat": 43.65536,
      "lng": -79.413114,
      "price": 2,
      "reserve_url": "http://www.opentable.com/single.aspx?rid=22612",
      "mobile_reserve_url": "http://mobile.opentable.com/opentable/?restId=22612",
      "image_url": "https://www.opentable.com/img/restimages/22612.jpg"
    },
    "23626": {
      "id": 23626,
      "name": "Canyon Creek - Front Street",
      "address": "156 Front Street West",
      "city": "Toronto",
      "state": "ON",
      "area": "Toronto / SW Ontario",
      "postal_code": "M5J 2L6",
      "country": "CA",
      "phone": "4165962240x",
      "lat": 43.644968,
      "lng": -79.384048,
      "price": 3,
      "reserve_url": "http://www.opentable.com/single.aspx?rid=23626",
      "mobile_reserve_url": "http://mobile.opentable.com/opentable/?restId=23626",
      "image_url": "https://www.opentable.com/img/restimages/23626.jpg"
    },
    "24649": {
      "id": 24649,
      "name": "Vagabondo Italian  Ristorante & Lounge",
      "address": "32 Wellington Street East",
      "city": "Toronto",
      "state": "ON",
      "area": "Toronto / SW Ontario",
      "postal_code": "M5E 1C6",
      "country": "CA",
      "phone": "4168621999",
      "lat": 43.648287,
      "lng": -79.375386,
      "price": 2,
      "reserve_url": "http://www.opentable.com/single.aspx?rid=24649",
      "mobile_reserve_url": "http://mobile.opentable.com/opentable/?restId=24649",
      "image_url": "https://www.opentable.com/img/restimages/24649.jpg"
    },
    "25072": {
      "id": 25072,
      "name": "FRANK @ The Art Gallery of Ontario",
      "address": "317 Dundas Street West",
      "city": "Toronto",
      "state": "ON",
      "area": "Toronto / SW Ontario",
      "postal_code": "M5T",
      "country": "CA",
      "phone": "4169796688",
      "lat": 43.653676,
      "lng": -79.392339,
      "price": 3,
      "reserve_url": "http://www.opentable.com/single.aspx?rid=25072",
      "mobile_reserve_url": "http://mobile.opentable.com/opentable/?restId=25072",
      "image_url": "https://www.opentable.com/img/restimages/25072.jpg"
    },
    "25402": {
      "id": 25402,
      "name": "Coppi Ristorante",
      "address": "3363 Yonge Street",
      "city": "Toronto",
      "state": "ON",
      "area": "Toronto / SW Ontario",
      "postal_code": "M4N 2M6",
      "country": "CA",
      "phone": "4164844464",
      "lat": 43.731606,
      "lng": -79.403906,
      "price": 2,
      "reserve_url": "http://www.opentable.com/single.aspx?rid=25402",
      "mobile_reserve_url": "http://mobile.opentable.com/opentable/?restId=25402",
      "image_url": "https://www.opentable.com/img/restimages/25402.jpg"
    },
    "26239": {
      "id": 26239,
      "name": "Blu Ristorante",
      "address": "17A Yorkville Avenue",
      "city": "Toronto",
      "state": "ON",
      "area": "Toronto / SW Ontario",
      "postal_code": "M4W 1L1",
      "country": "CA",
      "phone": "4169211471x",
      "lat": 43.671706,
      "lng": -79.388481,
      "price": 3,
      "reserve_url": "http://www.opentable.com/single.aspx?rid=26239",
      "mobile_reserve_url": "http://mobile.opentable.com/opentable/?restId=26239",
      "image_url": "https://www.opentable.com/img/restimages/26239.jpg"
    },
    "26689": {
      "id": 26689,
      "name": "Table 17",
      "address": "782 Queen St. East",
      "city": "Toronto",
      "state": "ON",
      "area": "Toronto / SW Ontario",
      "postal_code": "M4M 1H4",
      "country": "CA",
      "phone": "4165191851x",
      "lat": 43.659484,
      "lng": -79.347149,
      "price": 3,
      "reserve_url": "http://www.opentable.com/single.aspx?rid=26689",
      "mobile_reserve_url": "http://mobile.opentable.com/opentable/?restId=26689",
      "image_url": "https://www.opentable.com/img/restimages/26689.jpg"
    },
    "27571": {
      "id": 27571,
      "name": "Paganelli's Downtown Toronto",
      "address": "106 Front Street East",
      "city": "Toronto",
      "state": "ON",
      "area": "Toronto / SW Ontario",
      "postal_code": "M5A 1E1",
      "country": "CA",
      "phone": "4163638370x",
      "lat": 43.649626,
      "lng": -79.370872,
      "price": 3,
      "reserve_url": "http://www.opentable.com/single.aspx?rid=27571",
      "mobile_reserve_url": "http://mobile.opentable.com/opentable/?restId=27571",
      "image_url": "https://www.opentable.com/img/restimages/27571.jpg"
    },
    "27808": {
      "id": 27808,
      "name": "Tabule on Yonge",
      "address": "2009 Yonge Street",
      "city": "Toronto",
      "state": "ON",
      "area": "Toronto / SW Ontario",
      "postal_code": "M4S 1Z8",
      "country": "CA",
      "phone": "4164833747",
      "lat": 43.700949,
      "lng": -79.397144,
      "price": 2,
      "reserve_url": "http://www.opentable.com/single.aspx?rid=27808",
      "mobile_reserve_url": "http://mobile.opentable.com/opentable/?restId=27808",
      "image_url": "https://www.opentable.com/img/restimages/27808.jpg"
    },
    "27811": {
      "id": 27811,
      "name": "Joy Bistro",
      "address": "884 Queen Street East",
      "city": "Toronto",
      "state": "ON",
      "area": "Toronto / SW Ontario",
      "postal_code": "M4M 1J3",
      "country": "CA",
      "phone": "4164658855",
      "lat": 43.660036,
      "lng": -79.344606,
      "price": 2,
      "reserve_url": "http://www.opentable.com/single.aspx?rid=27811",
      "mobile_reserve_url": "http://mobile.opentable.com/opentable/?restId=27811",
      "image_url": "https://www.opentable.com/img/restimages/27811.jpg"
    },
    "29872": {
      "id": 29872,
      "name": "King Street Social Kitchen & Bar - Hyatt Regency Toronto",
      "address": "370 King Street West",
      "city": "Toronto",
      "state": "ON",
      "area": "Toronto / SW Ontario",
      "postal_code": "M5V 1J9",
      "country": "CA",
      "phone": "4165952525x",
      "lat": 43.646199,
      "lng": -79.391482,
      "price": 2,
      "reserve_url": "http://www.opentable.com/single.aspx?rid=29872",
      "mobile_reserve_url": "http://mobile.opentable.com/opentable/?restId=29872",
      "image_url": "https://www.opentable.com/img/restimages/29872.jpg"
    },
    "30811": {
      "id": 30811,
      "name": "The Chefs' House - George Brown College",
      "address": "215 King Street East",
      "city": "Toronto",
      "state": "ON",
      "area": "Toronto / SW Ontario",
      "postal_code": "M5A 1N1",
      "country": "CA",
      "phone": "4164152260",
      "lat": 43.651071,
      "lng": -79.369122,
      "price": 3,
      "reserve_url": "http://www.opentable.com/single.aspx?rid=30811",
      "mobile_reserve_url": "http://mobile.opentable.com/opentable/?restId=30811",
      "image_url": "https://www.opentable.com/img/restimages/30811.jpg"
    },
    "30937": {
      "id": 30937,
      "name": "Origin Restaurant",
      "address": "107 King Street East",
      "city": "Toronto",
      "state": "ON",
      "area": "Toronto / SW Ontario",
      "postal_code": "M5C 1G6",
      "country": "CA",
      "phone": "4166038009",
      "lat": 43.649946,
      "lng": -79.374177,
      "price": 4,
      "reserve_url": "http://www.opentable.com/single.aspx?rid=30937",
      "mobile_reserve_url": "http://mobile.opentable.com/opentable/?restId=30937",
      "image_url": "https://www.opentable.com/img/restimages/30937.jpg"
    },
    "32068": {
      "id": 32068,
      "name": "Hot House Restaurant & Bar",
      "address": "35 Church Street",
      "city": "Toronto",
      "state": "ON",
      "area": "Toronto / SW Ontario",
      "postal_code": "M5E 1T3",
      "country": "CA",
      "phone": "4163667800",
      "lat": 43.648943,
      "lng": -79.373984,
      "price": 2,
      "reserve_url": "http://www.opentable.com/single.aspx?rid=32068",
      "mobile_reserve_url": "http://mobile.opentable.com/opentable/?restId=32068",
      "image_url": "https://www.opentable.com/img/restimages/32068.jpg"
    },
    "32251": {
      "id": 32251,
      "name": "The Loose Moose Tap & Grill",
      "address": "146 Front Street West",
      "city": "Toronto",
      "state": "ON",
      "area": "Toronto / SW Ontario",
      "postal_code": "M5J 1G2",
      "country": "CA",
      "phone": "4169778840",
      "lat": 43.64502,
      "lng": -79.383821,
      "price": 2,
      "reserve_url": "http://www.opentable.com/single.aspx?rid=32251",
      "mobile_reserve_url": "http://mobile.opentable.com/opentable/?restId=32251",
      "image_url": "https://www.opentable.com/img/restimages/32251.jpg"
    },
    "32413": {
      "id": 32413,
      "name": "Copacabana Brazilian Steak House- Toronto",
      "address": "150 Eglinton East",
      "city": "Toronto",
      "state": "ON",
      "area": "Toronto / SW Ontario",
      "postal_code": "M4P 1E8",
      "country": "CA",
      "phone": "4169162099x",
      "lat": 43.707662,
      "lng": -79.393852,
      "price": 3,
      "reserve_url": "http://www.opentable.com/single.aspx?rid=32413",
      "mobile_reserve_url": "http://mobile.opentable.com/opentable/?restId=32413",
      "image_url": "https://www.opentable.com/img/restimages/32413.jpg"
    },
    "32653": {
      "id": 32653,
      "name": "Tundra - Hilton Toronto",
      "address": "Hilton Toronto",
      "city": "Toronto",
      "state": "ON",
      "area": "Toronto / SW Ontario",
      "postal_code": "M5H 2L2",
      "country": "CA",
      "phone": "416 860 6800x",
      "lat": 43.650041,
      "lng": -79.385578,
      "price": 3,
      "reserve_url": "http://www.opentable.com/single.aspx?rid=32653",
      "mobile_reserve_url": "http://mobile.opentable.com/opentable/?restId=32653",
      "image_url": "https://www.opentable.com/img/restimages/32653.jpg"
    },
    "33094": {
      "id": 33094,
      "name": "Miller Tavern",
      "address": "3885 Yonge Street",
      "city": "Toronto",
      "state": "ON",
      "area": "Toronto / SW Ontario",
      "postal_code": "M4N 2P2",
      "country": "CA",
      "phone": "4163225544x",
      "lat": 43.740471,
      "lng": -79.405872,
      "price": 3,
      "reserve_url": "http://www.opentable.com/single.aspx?rid=33094",
      "mobile_reserve_url": "http://mobile.opentable.com/opentable/?restId=33094",
      "image_url": "https://www.opentable.com/img/restimages/33094.jpg"
    },
    "33103": {
      "id": 33103,
      "name": "Oliver & Bonacini Cafe Grill, Bayview Village",
      "address": "2901 Bayview Avenue",
      "city": "Toronto",
      "state": "ON",
      "area": "Toronto / SW Ontario",
      "postal_code": "M2K 1E6",
      "country": "CA",
      "phone": "4165901300x",
      "lat": 43.769039,
      "lng": -79.388565,
      "price": 2,
      "reserve_url": "http://www.opentable.com/single.aspx?rid=33103",
      "mobile_reserve_url": "http://mobile.opentable.com/opentable/?restId=33103",
      "image_url": "https://www.opentable.com/img/restimages/33103.jpg"
    },
    "34468": {
      "id": 34468,
      "name": "Baton Rouge Front Street",
      "address": "277 Front Street W",
      "city": "Toronto",
      "state": "ON",
      "area": "Toronto / SW Ontario",
      "postal_code": "M5V 2X4",
      "country": "CA",
      "phone": "4165936620",
      "lat": 43.644153,
      "lng": -79.387844,
      "price": 2,
      "reserve_url": "http://www.opentable.com/single.aspx?rid=34468",
      "mobile_reserve_url": "http://mobile.opentable.com/opentable/?restId=34468",
      "image_url": "https://www.opentable.com/img/restimages/34468.jpg"
    },
    "34498": {
      "id": 34498,
      "name": "John & Sons Oyster House - Downtown",
      "address": "56 Temperance Street",
      "city": "Toronto",
      "state": "ON",
      "area": "Toronto / SW Ontario",
      "postal_code": "M5H 3V5",
      "country": "CA",
      "phone": "4167035111",
      "lat": 43.650636,
      "lng": -79.38068,
      "price": 3,
      "reserve_url": "http://www.opentable.com/single.aspx?rid=34498",
      "mobile_reserve_url": "http://mobile.opentable.com/opentable/?restId=34498",
      "image_url": "https://www.opentable.com/img/restimages/34498.jpg"
    },
    "34915": {
      "id": 34915,
      "name": "Platinum Club- MLSE",
      "address": "40 Bay St.",
      "city": "Toronto",
      "state": "ON",
      "area": "Toronto / SW Ontario",
      "postal_code": "M5J 2X2",
      "country": "CA",
      "phone": "4168155983x",
      "lat": 43.643333,
      "lng": -79.377994,
      "price": 3,
      "reserve_url": "http://www.opentable.com/single.aspx?rid=34915",
      "mobile_reserve_url": "http://mobile.opentable.com/opentable/?restId=34915",
      "image_url": "https://www.opentable.com/img/restimages/34915.jpg"
    },
    "34918": {
      "id": 34918,
      "name": "Hot Stove Club - MLSE",
      "address": "40 Bay Street",
      "city": "Toronto",
      "state": "ON",
      "area": "Toronto / SW Ontario",
      "postal_code": "M5J 2X2",
      "country": "CA",
      "phone": "4168155983x",
      "lat": 43.643333,
      "lng": -79.377994,
      "price": 3,
      "reserve_url": "http://www.opentable.com/single.aspx?rid=34918",
      "mobile_reserve_url": "http://mobile.opentable.com/opentable/?restId=34918",
      "image_url": "https://www.opentable.com/img/restimages/34918.jpg"
    },
    "34921": {
      "id": 34921,
      "name": "Air Canada Club - MLSE",
      "address": "40 Bay St.",
      "city": "Toronto",
      "state": "ON",
      "area": "Toronto / SW Ontario",
      "postal_code": "M5J 2X2",
      "country": "CA",
      "phone": "4168155983",
      "lat": 43.643333,
      "lng": -79.377994,
      "price": 3,
      "reserve_url": "http://www.opentable.com/single.aspx?rid=34921",
      "mobile_reserve_url": "http://mobile.opentable.com/opentable/?restId=34921",
      "image_url": "https://www.opentable.com/img/restimages/34921.jpg"
    },
    "36073": {
      "id": 36073,
      "name": "Oliver & Bonacini Caf√© Grill, Yonge & Front",
      "address": "33 Yonge Street",
      "city": "Toronto",
      "state": "ON",
      "area": "Toronto / SW Ontario",
      "postal_code": "M5E 1G4",
      "country": "CA",
      "phone": "6472602070x",
      "lat": 43.64741,
      "lng": -79.376802,
      "price": 3,
      "reserve_url": "http://www.opentable.com/single.aspx?rid=36073",
      "mobile_reserve_url": "http://mobile.opentable.com/opentable/?restId=36073",
      "image_url": "https://www.opentable.com/img/restimages/36073.jpg"
    },
    "36835": {
      "id": 36835,
      "name": "Ciao Wine Bar",
      "address": "133 Yorkville",
      "city": "Toronto",
      "state": "ON",
      "area": "Toronto / SW Ontario",
      "postal_code": "M5R 1C4",
      "country": "CA",
      "phone": "4169252143",
      "lat": 43.670687,
      "lng": -79.393328,
      "price": 2,
      "reserve_url": "http://www.opentable.com/single.aspx?rid=36835",
      "mobile_reserve_url": "http://mobile.opentable.com/opentable/?restId=36835",
      "image_url": "https://www.opentable.com/img/restimages/36835.jpg"
    },
    "37057": {
      "id": 37057,
      "name": "Buca",
      "address": "604 King St. West",
      "city": "Toronto",
      "state": "ON",
      "area": "Toronto / SW Ontario",
      "postal_code": "M5V 1M6",
      "country": "CA",
      "phone": "4168651600",
      "lat": 43.644431,
      "lng": -79.400166,
      "price": 2,
      "reserve_url": "http://www.opentable.com/single.aspx?rid=37057",
      "mobile_reserve_url": "http://mobile.opentable.com/opentable/?restId=37057",
      "image_url": "https://www.opentable.com/img/restimages/37057.jpg"
    },
    "40507": {
      "id": 40507,
      "name": "360 The Restaurant at the CN Tower",
      "address": "301 Front St West",
      "city": "Toronto",
      "state": "ON",
      "area": "Toronto / SW Ontario",
      "postal_code": "M5V 2T6",
      "country": "CA",
      "phone": "4163625411x",
      "lat": 43.644011,
      "lng": -79.388449,
      "price": 4,
      "reserve_url": "http://www.opentable.com/single.aspx?rid=40507",
      "mobile_reserve_url": "http://mobile.opentable.com/opentable/?restId=40507",
      "image_url": "https://www.opentable.com/img/restimages/40507.jpg"
    },
    "41023": {
      "id": 41023,
      "name": "O&B Canteen",
      "address": "330 King Street W, TIFF Bell Lightbox",
      "city": "Toronto",
      "state": "ON",
      "area": "Toronto / SW Ontario",
      "postal_code": "M5V 3X2",
      "country": "CA",
      "phone": "6472884710x",
      "lat": 43.646624,
      "lng": -79.389854,
      "price": 2,
      "reserve_url": "http://www.opentable.com/single.aspx?rid=41023",
      "mobile_reserve_url": "http://mobile.opentable.com/opentable/?restId=41023",
      "image_url": "https://www.opentable.com/img/restimages/41023.jpg"
    },
    "41026": {
      "id": 41026,
      "name": "Fabbrica",
      "address": "49 Karl Fraser Road",
      "city": "Toronto",
      "state": "ON",
      "area": "Toronto / SW Ontario",
      "postal_code": "M3C 0E5",
      "country": "CA",
      "phone": "4163910307",
      "lat": 43.735586,
      "lng": -79.344796,
      "price": 3,
      "reserve_url": "http://www.opentable.com/single.aspx?rid=41026",
      "mobile_reserve_url": "http://mobile.opentable.com/opentable/?restId=41026",
      "image_url": "https://www.opentable.com/img/restimages/41026.jpg"
    },
    "41287": {
      "id": 41287,
      "name": "Luma",
      "address": "350 King St. West, 2nd Floor, TIFF Bell Lightbox",
      "city": "Toronto",
      "state": "ON",
      "area": "Toronto / SW Ontario",
      "postal_code": "M5V 3X2",
      "country": "CA",
      "phone": "6472884715x",
      "lat": 43.646624,
      "lng": -79.389854,
      "price": 3,
      "reserve_url": "http://www.opentable.com/single.aspx?rid=41287",
      "mobile_reserve_url": "http://mobile.opentable.com/opentable/?restId=41287",
      "image_url": "https://www.opentable.com/img/restimages/41287.jpg"
    },
    "41800": {
      "id": 41800,
      "name": "Jack Astor's Bar & Grill - Front St.",
      "address": "144 Front St W",
      "city": "Toronto",
      "state": "ON",
      "area": "Toronto / SW Ontario",
      "postal_code": "M5J 2L7",
      "country": "CA",
      "phone": "4165852121",
      "lat": 43.645333,
      "lng": -79.383289,
      "price": 2,
      "reserve_url": "http://www.opentable.com/single.aspx?rid=41800",
      "mobile_reserve_url": "http://mobile.opentable.com/opentable/?restId=41800",
      "image_url": "https://www.opentable.com/img/restimages/41800.jpg"
    },
    "42577": {
      "id": 42577,
      "name": "Linda Modern Thai FKA Linda Restaurant",
      "address": "11 Karl Fraser Road",
      "city": "Toronto",
      "state": "ON",
      "area": "Toronto / SW Ontario",
      "postal_code": "M3C 0E7",
      "country": "CA",
      "phone": "4166423866x",
      "lat": 43.734789,
      "lng": -79.344227,
      "price": 2,
      "reserve_url": "http://www.opentable.com/single.aspx?rid=42577",
      "mobile_reserve_url": "http://mobile.opentable.com/opentable/?restId=42577",
      "image_url": "https://www.opentable.com/img/restimages/42577.jpg"
    },
    "44776": {
      "id": 44776,
      "name": "Zee Grill",
      "address": "641 Mt Pleasant Rd",
      "city": "Toronto",
      "state": "ON",
      "area": "Toronto / SW Ontario",
      "postal_code": "M4S 2M9",
      "country": "CA",
      "phone": "4164846428x",
      "lat": 43.704996,
      "lng": -79.388792,
      "price": 2,
      "reserve_url": "http://www.opentable.com/single.aspx?rid=44776",
      "mobile_reserve_url": "http://mobile.opentable.com/opentable/?restId=44776",
      "image_url": "https://www.opentable.com/img/restimages/44776.jpg"
    },
    "44791": {
      "id": 44791,
      "name": "Ginko Japanese Restaurant",
      "address": "655 Dixon Rd.",
      "city": "Toronto",
      "state": "ON",
      "area": "Toronto / SW Ontario",
      "postal_code": "M5H 3M7",
      "country": "CA",
      "phone": "4162488445",
      "lat": 43.6898,
      "lng": -79.578,
      "price": 3,
      "reserve_url": "http://www.opentable.com/single.aspx?rid=44791",
      "mobile_reserve_url": "http://mobile.opentable.com/opentable/?restId=44791",
      "image_url": "https://www.opentable.com/img/restimages/44791.jpg"
    },
    "45220": {
      "id": 45220,
      "name": "EDO",
      "address": "484 Eglinton Ave. West",
      "city": "Toronto",
      "state": "ON",
      "area": "Toronto / SW Ontario",
      "postal_code": "M5N 1A5",
      "country": "CA",
      "phone": "4163223033",
      "lat": 43.703702,
      "lng": -79.412867,
      "price": 3,
      "reserve_url": "http://www.opentable.com/single.aspx?rid=45220",
      "mobile_reserve_url": "http://mobile.opentable.com/opentable/?restId=45220",
      "image_url": "https://www.opentable.com/img/restimages/45220.jpg"
    },
    "45250": {
      "id": 45250,
      "name": "Il Posto - Toronto",
      "address": "148 Yorkville Ave",
      "city": "Toronto",
      "state": "ON",
      "area": "Toronto / SW Ontario",
      "postal_code": "M5R 1C2",
      "country": "CA",
      "phone": "4169680469",
      "lat": 43.67005,
      "lng": -79.393736,
      "price": 3,
      "reserve_url": "http://www.opentable.com/single.aspx?rid=45250",
      "mobile_reserve_url": "http://mobile.opentable.com/opentable/?restId=45250",
      "image_url": "https://www.opentable.com/img/restimages/45250.jpg"
    },
    "45682": {
      "id": 45682,
      "name": "Seasons- Westin Prince Toronto",
      "address": "900 York Mills Road",
      "city": "Toronto",
      "state": "ON",
      "area": "Toronto / SW Ontario",
      "postal_code": "M3B 3H2",
      "country": "CA",
      "phone": "4164442511x5273",
      "lat": 43.755944,
      "lng": -79.348224,
      "price": 3,
      "reserve_url": "http://www.opentable.com/single.aspx?rid=45682",
      "mobile_reserve_url": "http://mobile.opentable.com/opentable/?restId=45682",
      "image_url": "https://www.opentable.com/img/restimages/45682.jpg"
    },
    "46810": {
      "id": 46810,
      "name": "Real Sports Bar and Grill",
      "address": "15 York St.",
      "city": "Toronto",
      "state": "ON",
      "area": "Toronto / SW Ontario",
      "postal_code": "M5J 0A3",
      "country": "CA",
      "phone": "4168157325x",
      "lat": 43.642346,
      "lng": -79.381221,
      "price": 2,
      "reserve_url": "http://www.opentable.com/single.aspx?rid=46810",
      "mobile_reserve_url": "http://mobile.opentable.com/opentable/?restId=46810",
      "image_url": "https://www.opentable.com/img/restimages/46810.jpg"
    },
    "46882": {
      "id": 46882,
      "name": "Spacco Italian Eatery & Bar",
      "address": "2415 Yonge Street",
      "city": "Toronto",
      "state": "ON",
      "area": "Toronto / SW Ontario",
      "postal_code": "M4P 3E7",
      "country": "CA",
      "phone": "4164894163",
      "lat": 43.710301,
      "lng": -79.399082,
      "price": 2,
      "reserve_url": "http://www.opentable.com/single.aspx?rid=46882",
      "mobile_reserve_url": "http://mobile.opentable.com/opentable/?restId=46882",
      "image_url": "https://www.opentable.com/img/restimages/46882.jpg"
    },
    "46888": {
      "id": 46888,
      "name": "Frida",
      "address": "999 Eglinton Ave. West",
      "city": "Toronto",
      "state": "ON",
      "area": "Toronto / SW Ontario",
      "postal_code": "M6C 2C7",
      "country": "CA",
      "phone": "4167872221",
      "lat": 43.699734,
      "lng": -79.431322,
      "price": 3,
      "reserve_url": "http://www.opentable.com/single.aspx?rid=46888",
      "mobile_reserve_url": "http://mobile.opentable.com/opentable/?restId=46888",
      "image_url": "https://www.opentable.com/img/restimages/46888.jpg"
    },
    "47251": {
      "id": 47251,
      "name": "Quinn's Steakhouse & Irish Bar",
      "address": "96 Richmond Street West",
      "city": "Toronto",
      "state": "ON",
      "area": "Toronto / SW Ontario",
      "postal_code": "M5H 2A5",
      "country": "CA",
      "phone": "4163678466",
      "lat": 43.650906,
      "lng": -79.38285,
      "price": 3,
      "reserve_url": "http://www.opentable.com/single.aspx?rid=47251",
      "mobile_reserve_url": "http://mobile.opentable.com/opentable/?restId=47251",
      "image_url": "https://www.opentable.com/img/restimages/47251.jpg"
    },
    "47293": {
      "id": 47293,
      "name": "Epic Restaurant- The Royal York Hotel",
      "address": "100 Front Street West",
      "city": "Toronto",
      "state": "ON",
      "area": "Toronto / SW Ontario",
      "postal_code": "M5J 1E3",
      "country": "CA",
      "phone": "416-860-6949x",
      "lat": 43.645585,
      "lng": -79.381924,
      "price": 3,
      "reserve_url": "http://www.opentable.com/single.aspx?rid=47293",
      "mobile_reserve_url": "http://mobile.opentable.com/opentable/?restId=47293",
      "image_url": "https://www.opentable.com/img/restimages/47293.jpg"
    },
    "47296": {
      "id": 47296,
      "name": "Benihana- The Royal York Hotel",
      "address": "100 Front Street West",
      "city": "Toronto",
      "state": "ON",
      "area": "Toronto / SW Ontario",
      "postal_code": "M5J 1E3",
      "country": "CA",
      "phone": "4168605002",
      "lat": 43.645585,
      "lng": -79.381924,
      "price": 3,
      "reserve_url": "http://www.opentable.com/single.aspx?rid=47296",
      "mobile_reserve_url": "http://mobile.opentable.com/opentable/?restId=47296",
      "image_url": "https://www.opentable.com/img/restimages/47296.jpg"
    },
    "47299": {
      "id": 47299,
      "name": "Library Bar- The Royal York Hotel",
      "address": "100 Front St. West",
      "city": "Toronto",
      "state": "ON",
      "area": "Toronto / SW Ontario",
      "postal_code": "M5J 1E3",
      "country": "CA",
      "phone": "4163682511",
      "lat": 43.645585,
      "lng": -79.381924,
      "price": 2,
      "reserve_url": "http://www.opentable.com/single.aspx?rid=47299",
      "mobile_reserve_url": "http://mobile.opentable.com/opentable/?restId=47299",
      "image_url": "https://www.opentable.com/img/restimages/47299.jpg"
    },
    "47410": {
      "id": 47410,
      "name": "Lai Wah Heen Restaurant",
      "address": "108 Chestnut Street",
      "city": "Toronto",
      "state": "ON",
      "area": "Toronto / SW Ontario",
      "postal_code": "M5G 1R3",
      "country": "CA",
      "phone": "4169779899x",
      "lat": 43.654686,
      "lng": -79.385932,
      "price": 3,
      "reserve_url": "http://www.opentable.com/single.aspx?rid=47410",
      "mobile_reserve_url": "http://mobile.opentable.com/opentable/?restId=47410",
      "image_url": "https://www.opentable.com/img/restimages/47410.jpg"
    },
    "48187": {
      "id": 48187,
      "name": "Amore Trattoria",
      "address": "2425 Yonge Street",
      "city": "Toronto",
      "state": "ON",
      "area": "Toronto / SW Ontario",
      "postal_code": "M4P 2E7",
      "country": "CA",
      "phone": "4163226184",
      "lat": 43.71063,
      "lng": -79.398991,
      "price": 2,
      "reserve_url": "http://www.opentable.com/single.aspx?rid=48187",
      "mobile_reserve_url": "http://mobile.opentable.com/opentable/?restId=48187",
      "image_url": "https://www.opentable.com/img/restimages/48187.jpg"
    },
    "48577": {
      "id": 48577,
      "name": "Houston - Yonge",
      "address": "33 Yonge Street",
      "city": "Toronto",
      "state": "ON",
      "area": "Toronto / SW Ontario",
      "postal_code": "M5E 1G4",
      "country": "CA",
      "phone": "4162142207x",
      "lat": 43.64741,
      "lng": -79.376802,
      "price": 2,
      "reserve_url": "http://www.opentable.com/single.aspx?rid=48577",
      "mobile_reserve_url": "http://mobile.opentable.com/opentable/?restId=48577",
      "image_url": "https://www.opentable.com/img/restimages/48577.jpg"
    },
    "48586": {
      "id": 48586,
      "name": "La Vecchia Ristorante",
      "address": "2405-A Yonge Street",
      "city": "Toronto",
      "state": "ON",
      "area": "Toronto / SW Ontario",
      "postal_code": "M4P 2E7",
      "country": "CA",
      "phone": "4164890630",
      "lat": 43.71019,
      "lng": -79.399057,
      "price": 3,
      "reserve_url": "http://www.opentable.com/single.aspx?rid=48586",
      "mobile_reserve_url": "http://mobile.opentable.com/opentable/?restId=48586",
      "image_url": "https://www.opentable.com/img/restimages/48586.jpg"
    },
    "50557": {
      "id": 50557,
      "name": "L'Unit√† Enoteca",
      "address": "134 Avenue Road",
      "city": "Toronto",
      "state": "ON",
      "area": "Toronto / SW Ontario",
      "postal_code": "M5R 2H6",
      "country": "CA",
      "phone": "4169648686x",
      "lat": 43.674356,
      "lng": -79.396582,
      "price": 2,
      "reserve_url": "http://www.opentable.com/single.aspx?rid=50557",
      "mobile_reserve_url": "http://mobile.opentable.com/opentable/?restId=50557",
      "image_url": "https://www.opentable.com/img/restimages/50557.jpg"
    },
    "50629": {
      "id": 50629,
      "name": "e11even",
      "address": "15 York Street",
      "city": "Toronto",
      "state": "ON",
      "area": "Toronto / SW Ontario",
      "postal_code": "M5J 0A3",
      "country": "CA",
      "phone": "4168151111x",
      "lat": 43.642346,
      "lng": -79.381221,
      "price": 4,
      "reserve_url": "http://www.opentable.com/single.aspx?rid=50629",
      "mobile_reserve_url": "http://mobile.opentable.com/opentable/?restId=50629",
      "image_url": "https://www.opentable.com/img/restimages/50629.jpg"
    },
    "51262": {
      "id": 51262,
      "name": "Katsura- Westin Prince Toronto",
      "address": "900 York Mills Rd.",
      "city": "Toronto",
      "state": "ON",
      "area": "Toronto / SW Ontario",
      "postal_code": "M3B 3H2",
      "country": "CA",
      "phone": "6472593230",
      "lat": 43.755944,
      "lng": -79.348224,
      "price": 3,
      "reserve_url": "http://www.opentable.com/single.aspx?rid=51262",
      "mobile_reserve_url": "http://mobile.opentable.com/opentable/?restId=51262",
      "image_url": "https://www.opentable.com/img/restimages/51262.jpg"
    },
    "51373": {
      "id": 51373,
      "name": "Paese Ristorante King St.",
      "address": "333 King St. West",
      "city": "Toronto",
      "state": "ON",
      "area": "Toronto / SW Ontario",
      "postal_code": "M5V 1J5",
      "country": "CA",
      "phone": "4165996585x",
      "lat": 43.64621,
      "lng": -79.391366,
      "price": 2,
      "reserve_url": "http://www.opentable.com/single.aspx?rid=51373",
      "mobile_reserve_url": "http://mobile.opentable.com/opentable/?restId=51373",
      "image_url": "https://www.opentable.com/img/restimages/51373.jpg"
    },
    "51376": {
      "id": 51376,
      "name": "Paese Ristorante Bathurst St.",
      "address": "3827 Bathurst Street",
      "city": "Toronto",
      "state": "ON",
      "area": "Toronto / SW Ontario",
      "postal_code": "M3H3N1",
      "country": "CA",
      "phone": "4166316585",
      "lat": 43.73968,
      "lng": -79.434566,
      "price": 2,
      "reserve_url": "http://www.opentable.com/single.aspx?rid=51376",
      "mobile_reserve_url": "http://mobile.opentable.com/opentable/?restId=51376",
      "image_url": "https://www.opentable.com/img/restimages/51376.jpg"
    },
    "51610": {
      "id": 51610,
      "name": "TOCA - Ritz Carlton Toronto",
      "address": "181 Wellington Street West",
      "city": "Toronto",
      "state": "ON",
      "area": "Toronto / SW Ontario",
      "postal_code": "M5V 3G7",
      "country": "CA",
      "phone": "416-572-8008x",
      "lat": 43.64604,
      "lng": -79.38574,
      "price": 3,
      "reserve_url": "http://www.opentable.com/single.aspx?rid=51610",
      "mobile_reserve_url": "http://mobile.opentable.com/opentable/?restId=51610",
      "image_url": "https://www.opentable.com/img/restimages/51610.jpg"
    },
    "51613": {
      "id": 51613,
      "name": "DEQ Terrace & Lounge - The Ritz-Carlton, Toronto",
      "address": "181 Wellington St. West",
      "city": "Toronto",
      "state": "ON",
      "area": "Toronto / SW Ontario",
      "postal_code": "M5V 3G7",
      "country": "CA",
      "phone": "4165852500x",
      "lat": 43.64604,
      "lng": -79.38574,
      "price": 3,
      "reserve_url": "http://www.opentable.com/single.aspx?rid=51613",
      "mobile_reserve_url": "http://mobile.opentable.com/opentable/?restId=51613",
      "image_url": "https://www.opentable.com/img/restimages/51613.jpg"
    },
    "52168": {
      "id": 52168,
      "name": "Sassafraz",
      "address": "100 Cumberland Street",
      "city": "Toronto",
      "state": "ON",
      "area": "Toronto / SW Ontario",
      "postal_code": "M5R 1A6",
      "country": "CA",
      "phone": "4169642222x",
      "lat": 43.670373,
      "lng": -79.391071,
      "price": 3,
      "reserve_url": "http://www.opentable.com/single.aspx?rid=52168",
      "mobile_reserve_url": "http://mobile.opentable.com/opentable/?restId=52168",
      "image_url": "https://www.opentable.com/img/restimages/52168.jpg"
    },
    "53077": {
      "id": 53077,
      "name": "Mideastro Yorkville",
      "address": "27 Yorkville Avenue",
      "city": "Toronto",
      "state": "ON",
      "area": "Toronto / SW Ontario",
      "postal_code": "M4W 1L4",
      "country": "CA",
      "phone": "4164772427x",
      "lat": 43.671534,
      "lng": -79.388861,
      "price": 3,
      "reserve_url": "http://www.opentable.com/single.aspx?rid=53077",
      "mobile_reserve_url": "http://mobile.opentable.com/opentable/?restId=53077",
      "image_url": "https://www.opentable.com/img/restimages/53077.jpg"
    },
    "53830": {
      "id": 53830,
      "name": "Aria Ristorante",
      "address": "25 York St.",
      "city": "Toronto",
      "state": "ON",
      "area": "Toronto / SW Ontario",
      "postal_code": "M5J 2V5",
      "country": "CA",
      "phone": "4163632742x",
      "lat": 43.643477,
      "lng": -79.381114,
      "price": 4,
      "reserve_url": "http://www.opentable.com/single.aspx?rid=53830",
      "mobile_reserve_url": "http://mobile.opentable.com/opentable/?restId=53830",
      "image_url": "https://www.opentable.com/img/restimages/53830.jpg"
    },
    "53866": {
      "id": 53866,
      "name": "KOKO! Share Bar",
      "address": "81 Yorkville Ave",
      "city": "Toronto",
      "state": "ON",
      "area": "Toronto / SW Ontario",
      "postal_code": "M5R 1C1",
      "country": "CA",
      "phone": "4168506135",
      "lat": 43.671003,
      "lng": -79.391516,
      "price": 3,
      "reserve_url": "http://www.opentable.com/single.aspx?rid=53866",
      "mobile_reserve_url": "http://mobile.opentable.com/opentable/?restId=53866",
      "image_url": "https://www.opentable.com/img/restimages/53866.jpg"
    },
    "54073": {
      "id": 54073,
      "name": "Cantine Bistro & Bar",
      "address": "138 Avenue Rd.",
      "city": "Toronto",
      "state": "ON",
      "area": "Toronto / SW Ontario",
      "postal_code": "M5R 2H6",
      "country": "CA",
      "phone": "4169234822",
      "lat": 43.674431,
      "lng": -79.396603,
      "price": 3,
      "reserve_url": "http://www.opentable.com/single.aspx?rid=54073",
      "mobile_reserve_url": "http://mobile.opentable.com/opentable/?restId=54073",
      "image_url": "https://www.opentable.com/img/restimages/54073.jpg"
    },
    "54079": {
      "id": 54079,
      "name": "Estiatorio VOLOS",
      "address": "133 Richmond St W",
      "city": "Toronto",
      "state": "ON",
      "area": "Toronto / SW Ontario",
      "postal_code": "M5H 2L3",
      "country": "CA",
      "phone": "4168611211x",
      "lat": 43.650313,
      "lng": -79.384832,
      "price": 2,
      "reserve_url": "http://www.opentable.com/single.aspx?rid=54079",
      "mobile_reserve_url": "http://mobile.opentable.com/opentable/?restId=54079",
      "image_url": "https://www.opentable.com/img/restimages/54079.jpg"
    },
    "54085": {
      "id": 54085,
      "name": "Little Anthony's Italian Ristorante",
      "address": "121 Richmond St",
      "city": "Toronto",
      "state": "ON",
      "area": "Toronto / SW Ontario",
      "postal_code": "M5H 2K1",
      "country": "CA",
      "phone": "4163682223x",
      "lat": 43.650388,
      "lng": -79.384458,
      "price": 2,
      "reserve_url": "http://www.opentable.com/single.aspx?rid=54085",
      "mobile_reserve_url": "http://mobile.opentable.com/opentable/?restId=54085",
      "image_url": "https://www.opentable.com/img/restimages/54085.jpg"
    },
    "54826": {
      "id": 54826,
      "name": "Wabora",
      "address": "59 Bathurst Street",
      "city": "Toronto",
      "state": "ON",
      "area": "Toronto / SW Ontario",
      "postal_code": "M5V 2P2",
      "country": "CA",
      "phone": "4167779501",
      "lat": 43.643898,
      "lng": -79.402669,
      "price": 3,
      "reserve_url": "http://www.opentable.com/single.aspx?rid=54826",
      "mobile_reserve_url": "http://mobile.opentable.com/opentable/?restId=54826",
      "image_url": "https://www.opentable.com/img/restimages/54826.jpg"
    },
    "56083": {
      "id": 56083,
      "name": "Enoteca Sociale",
      "address": "1288 Dundas St West",
      "city": "Toronto",
      "state": "ON",
      "area": "Toronto / SW Ontario",
      "postal_code": "M6J 1X7",
      "country": "CA",
      "phone": "4165341200x",
      "lat": 43.649561,
      "lng": -79.425717,
      "price": 2,
      "reserve_url": "http://www.opentable.com/single.aspx?rid=56083",
      "mobile_reserve_url": "http://mobile.opentable.com/opentable/?restId=56083",
      "image_url": "https://www.opentable.com/img/restimages/56083.jpg"
    },
    "56419": {
      "id": 56419,
      "name": "Czehoski",
      "address": "678 Queen Street West",
      "city": "Toronto",
      "state": "ON",
      "area": "Toronto / SW Ontario",
      "postal_code": "M6J 1E5",
      "country": "CA",
      "phone": "4163666111",
      "lat": 43.646536,
      "lng": -79.407362,
      "price": 2,
      "reserve_url": "http://www.opentable.com/single.aspx?rid=56419",
      "mobile_reserve_url": "http://mobile.opentable.com/opentable/?restId=56419",
      "image_url": "https://www.opentable.com/img/restimages/56419.jpg"
    },
    "58213": {
      "id": 58213,
      "name": "The Shore Club - Toronto",
      "address": "155 Wellington Street West",
      "city": "Toronto",
      "state": "ON",
      "area": "Toronto / SW Ontario",
      "postal_code": "M5V 3H1",
      "country": "CA",
      "phone": "4163513311x",
      "lat": 43.645924,
      "lng": -79.385694,
      "price": 3,
      "reserve_url": "http://www.opentable.com/single.aspx?rid=58213",
      "mobile_reserve_url": "http://mobile.opentable.com/opentable/?restId=58213",
      "image_url": "https://www.opentable.com/img/restimages/58213.jpg"
    },
    "58993": {
      "id": 58993,
      "name": "The Fifth Grill & Terrace",
      "address": "225 Richmond St. West",
      "city": "Toronto",
      "state": "ON",
      "area": "Toronto / SW Ontario",
      "postal_code": "M5V 1X6",
      "country": "CA",
      "phone": "4169793005x",
      "lat": 43.649321,
      "lng": -79.389614,
      "price": 3,
      "reserve_url": "http://www.opentable.com/single.aspx?rid=58993",
      "mobile_reserve_url": "http://mobile.opentable.com/opentable/?restId=58993",
      "image_url": "https://www.opentable.com/img/restimages/58993.jpg"
    },
    "59929": {
      "id": 59929,
      "name": "Joe Badali's Ristorante Italiano & Bar",
      "address": "156 Front St. West",
      "city": "Toronto",
      "state": "ON",
      "area": "Toronto / SW Ontario",
      "postal_code": "M5J 2L6",
      "country": "CA",
      "phone": "4169773064",
      "lat": 43.645091,
      "lng": -79.384111,
      "price": 2,
      "reserve_url": "http://www.opentable.com/single.aspx?rid=59929",
      "mobile_reserve_url": "http://mobile.opentable.com/opentable/?restId=59929",
      "image_url": "https://www.opentable.com/img/restimages/59929.jpg"
    },
    "60220": {
      "id": 60220,
      "name": "La Societe",
      "address": "131 Bloor Street, Unit 211",
      "city": "Toronto",
      "state": "ON",
      "area": "Toronto / SW Ontario",
      "postal_code": "M5S1R1",
      "country": "CA",
      "phone": "4165519929",
      "lat": 43.668869,
      "lng": -79.392683,
      "price": 2,
      "reserve_url": "http://www.opentable.com/single.aspx?rid=60220",
      "mobile_reserve_url": "http://mobile.opentable.com/opentable/?restId=60220",
      "image_url": "https://www.opentable.com/img/restimages/60220.jpg"
    },
    "60406": {
      "id": 60406,
      "name": "Rossini Restaurant",
      "address": "1988 Avenue Road",
      "city": "Toronto",
      "state": "ON",
      "area": "Toronto / SW Ontario",
      "postal_code": "M5M 4A4",
      "country": "CA",
      "phone": "4164811188x",
      "lat": 43.735372,
      "lng": -79.420166,
      "price": 2,
      "reserve_url": "http://www.opentable.com/single.aspx?rid=60406",
      "mobile_reserve_url": "http://mobile.opentable.com/opentable/?restId=60406",
      "image_url": "https://www.opentable.com/img/restimages/60406.jpg"
    },
    "60469": {
      "id": 60469,
      "name": "Fred's Not Here",
      "address": "321 King Street West",
      "city": "Toronto",
      "state": "ON",
      "area": "Toronto / SW Ontario",
      "postal_code": "M5V 1J5",
      "country": "CA",
      "phone": "4169719155",
      "lat": 43.64626,
      "lng": -79.390853,
      "price": 2,
      "reserve_url": "http://www.opentable.com/single.aspx?rid=60469",
      "mobile_reserve_url": "http://mobile.opentable.com/opentable/?restId=60469",
      "image_url": "https://www.opentable.com/img/restimages/60469.jpg"
    },
    "61186": {
      "id": 61186,
      "name": "Marcel's",
      "address": "315 King Street West",
      "city": "Toronto",
      "state": "ON",
      "area": "Toronto / SW Ontario",
      "postal_code": "M5V 1J5",
      "country": "CA",
      "phone": "4165918600",
      "lat": 43.646336,
      "lng": -79.390561,
      "price": 3,
      "reserve_url": "http://www.opentable.com/single.aspx?rid=61186",
      "mobile_reserve_url": "http://mobile.opentable.com/opentable/?restId=61186",
      "image_url": "https://www.opentable.com/img/restimages/61186.jpg"
    },
    "61603": {
      "id": 61603,
      "name": "Portico Restaurant & Lounge",
      "address": "15 Richmond Street East",
      "city": "Toronto",
      "state": "ON",
      "area": "Toronto / SW Ontario",
      "postal_code": "M5C 1N2",
      "country": "CA",
      "phone": "4166013774x",
      "lat": 43.651811,
      "lng": -79.377915,
      "price": 3,
      "reserve_url": "http://www.opentable.com/single.aspx?rid=61603",
      "mobile_reserve_url": "http://mobile.opentable.com/opentable/?restId=61603",
      "image_url": "https://www.opentable.com/img/restimages/61603.jpg"
    },
    "61609": {
      "id": 61609,
      "name": "Against the Grain Urban Tavern-Corus Quay",
      "address": "25 Dockside Drive",
      "city": "Toronto",
      "state": "ON",
      "area": "Toronto / SW Ontario",
      "postal_code": "M5A 0B5",
      "country": "CA",
      "phone": "6473441562",
      "lat": 43.643513,
      "lng": -79.366927,
      "price": 2,
      "reserve_url": "http://www.opentable.com/single.aspx?rid=61609",
      "mobile_reserve_url": "http://mobile.opentable.com/opentable/?restId=61609",
      "image_url": "https://www.opentable.com/img/restimages/61609.jpg"
    },
    "62041": {
      "id": 62041,
      "name": "Milagro on Mercer",
      "address": "5 Mercer Street",
      "city": "Toronto",
      "state": "ON",
      "area": "Toronto / SW Ontario",
      "postal_code": "M5V 1H2",
      "country": "CA",
      "phone": "4168502855",
      "lat": 43.645908,
      "lng": -79.389587,
      "price": 3,
      "reserve_url": "http://www.opentable.com/single.aspx?rid=62041",
      "mobile_reserve_url": "http://mobile.opentable.com/opentable/?restId=62041",
      "image_url": "https://www.opentable.com/img/restimages/62041.jpg"
    },
    "62047": {
      "id": 62047,
      "name": "Milagro on Queen West",
      "address": "783 Queen Street West",
      "city": "Toronto",
      "state": "ON",
      "area": "Toronto / SW Ontario",
      "postal_code": "M6J 1G1",
      "country": "CA",
      "phone": "4163662855",
      "lat": 43.646221,
      "lng": -79.408249,
      "price": 3,
      "reserve_url": "http://www.opentable.com/single.aspx?rid=62047",
      "mobile_reserve_url": "http://mobile.opentable.com/opentable/?restId=62047",
      "image_url": "https://www.opentable.com/img/restimages/62047.jpg"
    },
    "62050": {
      "id": 62050,
      "name": "Milagro on Yonge",
      "address": "3187 Yonge St.",
      "city": "Toronto",
      "state": "ON",
      "area": "Toronto / SW Ontario",
      "postal_code": "M4N 2K9",
      "country": "CA",
      "phone": "4164872855",
      "lat": 43.727576,
      "lng": -79.402717,
      "price": 3,
      "reserve_url": "http://www.opentable.com/single.aspx?rid=62050",
      "mobile_reserve_url": "http://mobile.opentable.com/opentable/?restId=62050",
      "image_url": "https://www.opentable.com/img/restimages/62050.jpg"
    },
    "62218": {
      "id": 62218,
      "name": "America Restaurant, Trump Toronto",
      "address": "325 Bay Street",
      "city": "Toronto",
      "state": "ON",
      "area": "Toronto / SW Ontario",
      "postal_code": "M5H 4G3",
      "country": "CA",
      "phone": "4166375550x",
      "lat": 43.649744,
      "lng": -79.380651,
      "price": 4,
      "reserve_url": "http://www.opentable.com/single.aspx?rid=62218",
      "mobile_reserve_url": "http://mobile.opentable.com/opentable/?restId=62218",
      "image_url": "https://www.opentable.com/img/restimages/62218.jpg"
    },
    "62605": {
      "id": 62605,
      "name": "Mistura",
      "address": "265 Davenport Road",
      "city": "Toronto",
      "state": "ON",
      "area": "Toronto / SW Ontario",
      "postal_code": "M5R 1J9",
      "country": "CA",
      "phone": "4165150009",
      "lat": 43.674294,
      "lng": -79.398225,
      "price": 3,
      "reserve_url": "http://www.opentable.com/single.aspx?rid=62605",
      "mobile_reserve_url": "http://mobile.opentable.com/opentable/?restId=62605",
      "image_url": "https://www.opentable.com/img/restimages/62605.jpg"
    },
    "63061": {
      "id": 63061,
      "name": "Sopra Lounge",
      "address": "265 Davenport Road",
      "city": "Toronto",
      "state": "ON",
      "area": "Toronto / SW Ontario",
      "postal_code": "M5R 1J9",
      "country": "CA",
      "phone": "4169299006",
      "lat": 43.674294,
      "lng": -79.398225,
      "price": 2,
      "reserve_url": "http://www.opentable.com/single.aspx?rid=63061",
      "mobile_reserve_url": "http://mobile.opentable.com/opentable/?restId=63061",
      "image_url": "https://www.opentable.com/img/restimages/63061.jpg"
    },
    "63499": {
      "id": 63499,
      "name": "Fin Izakaya",
      "address": "55 Eglinton Ave. East",
      "city": "Toronto",
      "state": "ON",
      "area": "Toronto / SW Ontario",
      "postal_code": "M4P 1G8",
      "country": "CA",
      "phone": "6473473864",
      "lat": 43.707061,
      "lng": -79.396159,
      "price": 2,
      "reserve_url": "http://www.opentable.com/single.aspx?rid=63499",
      "mobile_reserve_url": "http://mobile.opentable.com/opentable/?restId=63499",
      "image_url": "https://www.opentable.com/img/restimages/63499.jpg"
    },
    "65074": {
      "id": 65074,
      "name": "By the Way Cafe",
      "address": "400 Bloor St. West",
      "city": "Toronto",
      "state": "ON",
      "area": "Toronto / SW Ontario",
      "postal_code": "M5S 1X5",
      "country": "CA",
      "phone": "4169674295x",
      "lat": 43.665875,
      "lng": -79.408081,
      "price": 2,
      "reserve_url": "http://www.opentable.com/single.aspx?rid=65074",
      "mobile_reserve_url": "http://mobile.opentable.com/opentable/?restId=65074",
      "image_url": "https://www.opentable.com/img/restimages/65074.jpg"
    },
    "65095": {
      "id": 65095,
      "name": "Wine Bar - Toronto",
      "address": "9 Church St.",
      "city": "Toronto",
      "state": "ON",
      "area": "Toronto / SW Ontario",
      "postal_code": "M5E 1M2",
      "country": "CA",
      "phone": "4165049463x",
      "lat": 43.647846,
      "lng": -79.373527,
      "price": 3,
      "reserve_url": "http://www.opentable.com/single.aspx?rid=65095",
      "mobile_reserve_url": "http://mobile.opentable.com/opentable/?restId=65095",
      "image_url": "https://www.opentable.com/img/restimages/65095.jpg"
    },
    "65554": {
      "id": 65554,
      "name": "Bannock",
      "address": "401 Bay Street",
      "city": "Toronto",
      "state": "ON",
      "area": "Toronto / SW Ontario",
      "postal_code": "M5H 2Y4",
      "country": "CA",
      "phone": "4168616996x",
      "lat": 43.652321,
      "lng": -79.37938,
      "price": 2,
      "reserve_url": "http://www.opentable.com/single.aspx?rid=65554",
      "mobile_reserve_url": "http://mobile.opentable.com/opentable/?restId=65554",
      "image_url": "https://www.opentable.com/img/restimages/65554.jpg"
    },
    "66730": {
      "id": 66730,
      "name": "Signatures Restaurant",
      "address": "220 Bloor St. West,",
      "city": "Toronto",
      "state": "ON",
      "area": "Toronto / SW Ontario",
      "postal_code": "M5S 1T8",
      "country": "CA",
      "phone": "4163245885",
      "lat": 43.668404,
      "lng": -79.396299,
      "price": 3,
      "reserve_url": "http://www.opentable.com/single.aspx?rid=66730",
      "mobile_reserve_url": "http://mobile.opentable.com/opentable/?restId=66730",
      "image_url": "https://www.opentable.com/img/restimages/66730.jpg"
    },
    "66889": {
      "id": 66889,
      "name": "F'Amelia Ristorante",
      "address": "12 Amelia St.",
      "city": "Toronto",
      "state": "ON",
      "area": "Toronto / SW Ontario",
      "postal_code": "M4X 1E1",
      "country": "CA",
      "phone": "4163230666x",
      "lat": 43.667375,
      "lng": -79.368716,
      "price": 2,
      "reserve_url": "http://www.opentable.com/single.aspx?rid=66889",
      "mobile_reserve_url": "http://mobile.opentable.com/opentable/?restId=66889",
      "image_url": "https://www.opentable.com/img/restimages/66889.jpg"
    },
    "69208": {
      "id": 69208,
      "name": "Spuntini Ristorante",
      "address": "116 Avenue Rd,",
      "city": "Toronto",
      "state": "ON",
      "area": "Toronto / SW Ontario",
      "postal_code": "M5R 2H4",
      "country": "CA",
      "phone": "4169621110x",
      "lat": 43.673626,
      "lng": -79.39625,
      "price": 3,
      "reserve_url": "http://www.opentable.com/single.aspx?rid=69208",
      "mobile_reserve_url": "http://mobile.opentable.com/opentable/?restId=69208",
      "image_url": "https://www.opentable.com/img/restimages/69208.jpg"
    },
    "69625": {
      "id": 69625,
      "name": "Ascari Enoteca",
      "address": "1111 Queen St. East",
      "city": "Toronto",
      "state": "ON",
      "area": "Toronto / SW Ontario",
      "postal_code": "M4M 1K7",
      "country": "CA",
      "phone": "4167924157x",
      "lat": 43.661999,
      "lng": -79.33539,
      "price": 3,
      "reserve_url": "http://www.opentable.com/single.aspx?rid=69625",
      "mobile_reserve_url": "http://mobile.opentable.com/opentable/?restId=69625",
      "image_url": "https://www.opentable.com/img/restimages/69625.jpg"
    },
    "70018": {
      "id": 70018,
      "name": "630 Maroli Indian Kerala Restaurant",
      "address": "630 Bloor St. West",
      "city": "Toronto",
      "state": "ON",
      "area": "Toronto / SW Ontario",
      "postal_code": "M6G 1K7",
      "country": "CA",
      "phone": "4164835393",
      "lat": 43.664442,
      "lng": -79.414456,
      "price": 2,
      "reserve_url": "http://www.opentable.com/single.aspx?rid=70018",
      "mobile_reserve_url": "http://mobile.opentable.com/opentable/?restId=70018",
      "image_url": "https://www.opentable.com/img/restimages/70018.jpg"
    },
    "70072": {
      "id": 70072,
      "name": "The Old Spaghetti Factory - Toronto",
      "address": "54 The Explanade,",
      "city": "Toronto",
      "state": "ON",
      "area": "Toronto / SW Ontario",
      "postal_code": "M5E 1A6",
      "country": "CA",
      "phone": "4168649761",
      "lat": 43.646911,
      "lng": -79.374339,
      "price": 2,
      "reserve_url": "http://www.opentable.com/single.aspx?rid=70072",
      "mobile_reserve_url": "http://mobile.opentable.com/opentable/?restId=70072",
      "image_url": "https://www.opentable.com/img/restimages/70072.jpg"
    },
    "70429": {
      "id": 70429,
      "name": "Boehmer",
      "address": "93 Ossington Ave",
      "city": "Toronto",
      "state": "ON",
      "area": "Toronto / SW Ontario",
      "postal_code": "M6J 2Z2",
      "country": "CA",
      "phone": "4165313800x",
      "lat": 43.646241,
      "lng": -79.419565,
      "price": 3,
      "reserve_url": "http://www.opentable.com/single.aspx?rid=70429",
      "mobile_reserve_url": "http://mobile.opentable.com/opentable/?restId=70429",
      "image_url": "https://www.opentable.com/img/restimages/70429.jpg"
    },
    "72052": {
      "id": 72052,
      "name": "Pizzeria Libretto-Danforth",
      "address": "550 Danforth Ave",
      "city": "Toronto",
      "state": "ON",
      "area": "Toronto / SW Ontario",
      "postal_code": "M4K 1P7",
      "country": "CA",
      "phone": "4164660400x",
      "lat": 43.678537,
      "lng": -79.347631,
      "price": 2,
      "reserve_url": "http://www.opentable.com/single.aspx?rid=72052",
      "mobile_reserve_url": "http://mobile.opentable.com/opentable/?restId=72052",
      "image_url": "https://www.opentable.com/img/restimages/72052.jpg"
    },
    "72109": {
      "id": 72109,
      "name": "Lee",
      "address": "601 KING ST WEST",
      "city": "Toronto",
      "state": "ON",
      "area": "Toronto / SW Ontario",
      "postal_code": "M5V 1M5",
      "country": "CA",
      "phone": "4165047867x",
      "lat": 43.64431,
      "lng": -79.400595,
      "price": 4,
      "reserve_url": "http://www.opentable.com/single.aspx?rid=72109",
      "mobile_reserve_url": "http://mobile.opentable.com/opentable/?restId=72109",
      "image_url": "https://www.opentable.com/img/restimages/72109.jpg"
    },
    "72934": {
      "id": 72934,
      "name": "Hush Restaurant & Bar",
      "address": "303 King Street West,",
      "city": "Toronto",
      "state": "ON",
      "area": "Toronto / SW Ontario",
      "postal_code": "M5V 1J5",
      "country": "CA",
      "phone": "4169799799",
      "lat": 43.646403,
      "lng": -79.390304,
      "price": 2,
      "reserve_url": "http://www.opentable.com/single.aspx?rid=72934",
      "mobile_reserve_url": "http://mobile.opentable.com/opentable/?restId=72934",
      "image_url": "https://www.opentable.com/img/restimages/72934.jpg"
    },
    "73561": {
      "id": 73561,
      "name": "Tutti Matti",
      "address": "364 Adelaide St. West,",
      "city": "Toronto",
      "state": "ON",
      "area": "Toronto / SW Ontario",
      "postal_code": "M5V 1R7",
      "country": "CA",
      "phone": "4165978839x",
      "lat": 43.647172,
      "lng": -79.394044,
      "price": 4,
      "reserve_url": "http://www.opentable.com/single.aspx?rid=73561",
      "mobile_reserve_url": "http://mobile.opentable.com/opentable/?restId=73561",
      "image_url": "https://www.opentable.com/img/restimages/73561.jpg"
    },
    "73660": {
      "id": 73660,
      "name": "Modus Ristorante",
      "address": "145 King Street West",
      "city": "Toronto",
      "state": "ON",
      "area": "Toronto / SW Ontario",
      "postal_code": "M5H 1J8",
      "country": "CA",
      "phone": "4168619977",
      "lat": 43.647521,
      "lng": -79.384239,
      "price": 3,
      "reserve_url": "http://www.opentable.com/single.aspx?rid=73660",
      "mobile_reserve_url": "http://mobile.opentable.com/opentable/?restId=73660",
      "image_url": "https://www.opentable.com/img/restimages/73660.jpg"
    },
    "73738": {
      "id": 73738,
      "name": "Jaipur Grille",
      "address": "2066 Yonge Street",
      "city": "Toronto",
      "state": "ON",
      "area": "Toronto / SW Ontario",
      "postal_code": "M4S 2A3",
      "country": "CA",
      "phone": "4163225678",
      "lat": 43.701925,
      "lng": -79.397498,
      "price": 2,
      "reserve_url": "http://www.opentable.com/single.aspx?rid=73738",
      "mobile_reserve_url": "http://mobile.opentable.com/opentable/?restId=73738",
      "image_url": "https://www.opentable.com/img/restimages/73738.jpg"
    },
    "73816": {
      "id": 73816,
      "name": "Terroni ADELAIDE",
      "address": "57-A Adelaide St. East",
      "city": "Toronto",
      "state": "ON",
      "area": "Toronto / SW Ontario",
      "postal_code": "M5C 1K6",
      "country": "CA",
      "phone": "4162033093x",
      "lat": 43.651007,
      "lng": -79.375529,
      "price": 3,
      "reserve_url": "http://www.opentable.com/single.aspx?rid=73816",
      "mobile_reserve_url": "http://mobile.opentable.com/opentable/?restId=73816",
      "image_url": "https://www.opentable.com/img/restimages/73816.jpg"
    },
    "73819": {
      "id": 73819,
      "name": "Terroni  YONGE (at Price St.)",
      "address": "1095 Yonge St",
      "city": "Toronto",
      "state": "ON",
      "area": "Toronto / SW Ontario",
      "postal_code": "M4W 2L8",
      "country": "CA",
      "phone": "4169254020",
      "lat": 43.679797,
      "lng": -79.390517,
      "price": 3,
      "reserve_url": "http://www.opentable.com/single.aspx?rid=73819",
      "mobile_reserve_url": "http://mobile.opentable.com/opentable/?restId=73819",
      "image_url": "https://www.opentable.com/img/restimages/73819.jpg"
    },
    "74908": {
      "id": 74908,
      "name": "Mangia & Bevi Resto Bar",
      "address": "260 King St. East, unit A103",
      "city": "Toronto",
      "state": "ON",
      "area": "Toronto / SW Ontario",
      "postal_code": "M5A 4L5",
      "country": "CA",
      "phone": "4162031635",
      "lat": 43.651647,
      "lng": -79.366574,
      "price": 2,
      "reserve_url": "http://www.opentable.com/single.aspx?rid=74908",
      "mobile_reserve_url": "http://mobile.opentable.com/opentable/?restId=74908",
      "image_url": "https://www.opentable.com/img/restimages/74908.jpg"
    },
    "75154": {
      "id": 75154,
      "name": "Lula Lounge",
      "address": "1585 Dundas West",
      "city": "Toronto",
      "state": "ON",
      "area": "Toronto / SW Ontario",
      "postal_code": "M6K 1T5",
      "country": "CA",
      "phone": "4165880307",
      "lat": 43.649767,
      "lng": -79.434577,
      "price": 3,
      "reserve_url": "http://www.opentable.com/single.aspx?rid=75154",
      "mobile_reserve_url": "http://mobile.opentable.com/opentable/?restId=75154",
      "image_url": "https://www.opentable.com/img/restimages/75154.jpg"
    },
    "76546": {
      "id": 76546,
      "name": "Blowfish on Bay",
      "address": "Bay Adelaide Centre",
      "city": "Toronto",
      "state": "ON",
      "area": "Toronto / SW Ontario",
      "postal_code": "M5H 2R2",
      "country": "CA",
      "phone": "4168600606x",
      "lat": 43.650173,
      "lng": -79.380774,
      "price": 3,
      "reserve_url": "http://www.opentable.com/single.aspx?rid=76546",
      "mobile_reserve_url": "http://mobile.opentable.com/opentable/?restId=76546",
      "image_url": "https://www.opentable.com/img/restimages/76546.jpg"
    },
    "77428": {
      "id": 77428,
      "name": "Matisse Restaurant - Marriott Toronto Bloor Yorkville",
      "address": "90 Bloor Street East",
      "city": "Toronto",
      "state": "ON",
      "area": "Toronto / SW Ontario",
      "postal_code": "M4W 1A7",
      "country": "CA",
      "phone": "4169206500x",
      "lat": 43.670816,
      "lng": -79.38502,
      "price": 3,
      "reserve_url": "http://www.opentable.com/single.aspx?rid=77428",
      "mobile_reserve_url": "http://mobile.opentable.com/opentable/?restId=77428",
      "image_url": "https://www.opentable.com/img/restimages/77428.jpg"
    },
    "78649": {
      "id": 78649,
      "name": "Michael's on Simcoe",
      "address": "100 Simcoe St",
      "city": "Toronto",
      "state": "ON",
      "area": "Toronto / SW Ontario",
      "postal_code": "M5H 3L2",
      "country": "CA",
      "phone": "4162605100x",
      "lat": 43.648079,
      "lng": -79.386466,
      "price": 3,
      "reserve_url": "http://www.opentable.com/single.aspx?rid=78649",
      "mobile_reserve_url": "http://mobile.opentable.com/opentable/?restId=78649",
      "image_url": "https://www.opentable.com/img/restimages/78649.jpg"
    },
    "79831": {
      "id": 79831,
      "name": "Miller Tavern- downtown",
      "address": "31 Bay Street",
      "city": "Toronto",
      "state": "ON",
      "area": "Toronto / SW Ontario",
      "postal_code": "M5J 3B2",
      "country": "CA",
      "phone": "4163665544x",
      "lat": 43.643726,
      "lng": -79.378095,
      "price": 2,
      "reserve_url": "http://www.opentable.com/single.aspx?rid=79831",
      "mobile_reserve_url": "http://mobile.opentable.com/opentable/?restId=79831",
      "image_url": "https://www.opentable.com/img/restimages/79831.jpg"
    },
    "82396": {
      "id": 82396,
      "name": "dbar",
      "address": "60 Yorkville Ave",
      "city": "Toronto",
      "state": "ON",
      "area": "Toronto / SW Ontario",
      "postal_code": "M4W 0A4",
      "country": "CA",
      "phone": "4169636010x",
      "lat": 43.671651,
      "lng": -79.388804,
      "price": 3,
      "reserve_url": "http://www.opentable.com/single.aspx?rid=82396",
      "mobile_reserve_url": "http://mobile.opentable.com/opentable/?restId=82396",
      "image_url": "https://www.opentable.com/img/restimages/82396.jpg"
    },
    "82399": {
      "id": 82399,
      "name": "Caf√© Boulud",
      "address": "60 Yorkville Ave",
      "city": "Toronto",
      "state": "ON",
      "area": "Toronto / SW Ontario",
      "postal_code": "M4W 0A4",
      "country": "CA",
      "phone": "4169636000x",
      "lat": 43.671651,
      "lng": -79.388804,
      "price": 3,
      "reserve_url": "http://www.opentable.com/single.aspx?rid=82399",
      "mobile_reserve_url": "http://mobile.opentable.com/opentable/?restId=82399",
      "image_url": "https://www.opentable.com/img/restimages/82399.jpg"
    },
    "82831": {
      "id": 82831,
      "name": "The Saint",
      "address": "227 Ossington Ave.",
      "city": "Toronto",
      "state": "ON",
      "area": "Toronto / SW Ontario",
      "postal_code": "M6J 2Z8",
      "country": "CA",
      "phone": "6473502100x",
      "lat": 43.649036,
      "lng": -79.420652,
      "price": 3,
      "reserve_url": "http://www.opentable.com/single.aspx?rid=82831",
      "mobile_reserve_url": "http://mobile.opentable.com/opentable/?restId=82831",
      "image_url": "https://www.opentable.com/img/restimages/82831.jpg"
    },
    "82957": {
      "id": 82957,
      "name": "The Sultan's Tent",
      "address": "49 Front St E",
      "city": "Toronto",
      "state": "ON",
      "area": "Toronto / SW Ontario",
      "postal_code": "M5E 1B3",
      "country": "CA",
      "phone": "4169610601x",
      "lat": 43.648033,
      "lng": -79.374377,
      "price": 4,
      "reserve_url": "http://www.opentable.com/single.aspx?rid=82957",
      "mobile_reserve_url": "http://mobile.opentable.com/opentable/?restId=82957",
      "image_url": "https://www.opentable.com/img/restimages/82957.jpg"
    },
    "83494": {
      "id": 83494,
      "name": "The Harbord Room",
      "address": "89 Harbord Street",
      "city": "Toronto",
      "state": "ON",
      "area": "Toronto / SW Ontario",
      "postal_code": "M5S 1G4",
      "country": "CA",
      "phone": "4169628989",
      "lat": 43.662776,
      "lng": -79.403399,
      "price": 3,
      "reserve_url": "http://www.opentable.com/single.aspx?rid=83494",
      "mobile_reserve_url": "http://mobile.opentable.com/opentable/?restId=83494",
      "image_url": "https://www.opentable.com/img/restimages/83494.jpg"
    },
    "84184": {
      "id": 84184,
      "name": "Vibo Restaurant",
      "address": "2995 Bloor St W",
      "city": "Toronto",
      "state": "ON",
      "area": "Toronto / SW Ontario",
      "postal_code": "M8X 1C1",
      "country": "CA",
      "phone": "4162391286",
      "lat": 43.647589,
      "lng": -79.510003,
      "price": 3,
      "reserve_url": "http://www.opentable.com/single.aspx?rid=84184",
      "mobile_reserve_url": "http://mobile.opentable.com/opentable/?restId=84184",
      "image_url": "https://www.opentable.com/img/restimages/84184.jpg"
    },
    "84439": {
      "id": 84439,
      "name": "Vivoli",
      "address": "665 College St.",
      "city": "Toronto",
      "state": "ON",
      "area": "Toronto / SW Ontario",
      "postal_code": "M6G 1B7",
      "country": "CA",
      "phone": "4165367575",
      "lat": 43.654967,
      "lng": -79.416264,
      "price": 3,
      "reserve_url": "http://www.opentable.com/single.aspx?rid=84439",
      "mobile_reserve_url": "http://mobile.opentable.com/opentable/?restId=84439",
      "image_url": "https://www.opentable.com/img/restimages/84439.jpg"
    },
    "84556": {
      "id": 84556,
      "name": "Fishbar",
      "address": "217 Ossington Ave",
      "city": "Toronto",
      "state": "ON",
      "area": "Toronto / SW Ontario",
      "postal_code": "M6J 2Z7",
      "country": "CA",
      "phone": "6473400227",
      "lat": 43.648815,
      "lng": -79.420566,
      "price": 3,
      "reserve_url": "http://www.opentable.com/single.aspx?rid=84556",
      "mobile_reserve_url": "http://mobile.opentable.com/opentable/?restId=84556",
      "image_url": "https://www.opentable.com/img/restimages/84556.jpg"
    },
    "85147": {
      "id": 85147,
      "name": "Buonanotte",
      "address": "19 Mercer St.",
      "city": "Toronto",
      "state": "ON",
      "area": "Toronto / SW Ontario",
      "postal_code": "M5V 1H2",
      "country": "CA",
      "phone": "4165997246x",
      "lat": 43.645689,
      "lng": -79.390506,
      "price": 3,
      "reserve_url": "http://www.opentable.com/single.aspx?rid=85147",
      "mobile_reserve_url": "http://mobile.opentable.com/opentable/?restId=85147",
      "image_url": "https://www.opentable.com/img/restimages/85147.jpg"
    },
    "86071": {
      "id": 86071,
      "name": "Cafe Belong",
      "address": "550 Bayview Ave., Suite 100",
      "city": "Toronto",
      "state": "ON",
      "area": "Toronto / SW Ontario",
      "postal_code": "M4W 3X8",
      "country": "CA",
      "phone": "4169018234",
      "lat": 43.683052,
      "lng": -79.366039,
      "price": 2,
      "reserve_url": "http://www.opentable.com/single.aspx?rid=86071",
      "mobile_reserve_url": "http://mobile.opentable.com/opentable/?restId=86071",
      "image_url": "https://www.opentable.com/img/restimages/86071.jpg"
    },
    "86557": {
      "id": 86557,
      "name": "Paint Box",
      "address": "555 Dundas Street East",
      "city": "Toronto",
      "state": "ON",
      "area": "Toronto / SW Ontario",
      "postal_code": "M5A 2B7",
      "country": "CA",
      "phone": "6477480555x",
      "lat": 43.660105,
      "lng": -79.362907,
      "price": 2,
      "reserve_url": "http://www.opentable.com/single.aspx?rid=86557",
      "mobile_reserve_url": "http://mobile.opentable.com/opentable/?restId=86557",
      "image_url": "https://www.opentable.com/img/restimages/86557.jpg"
    },
    "86947": {
      "id": 86947,
      "name": "Enoteca Maialino",
      "address": "1688 Queen St. West",
      "city": "Toronto",
      "state": "ON",
      "area": "Toronto / SW Ontario",
      "postal_code": "M6R 1B3",
      "country": "CA",
      "phone": "4165515251x",
      "lat": 43.639107,
      "lng": -79.44448,
      "price": 2,
      "reserve_url": "http://www.opentable.com/single.aspx?rid=86947",
      "mobile_reserve_url": "http://mobile.opentable.com/opentable/?restId=86947",
      "image_url": "https://www.opentable.com/img/restimages/86947.jpg"
    },
    "88234": {
      "id": 88234,
      "name": "Noka All You Can Eat Japanese Cuisine & Sushi",
      "address": "513 Bloor St. W",
      "city": "Toronto",
      "state": "ON",
      "area": "Toronto / SW Ontario",
      "postal_code": "M5S 1Y4",
      "country": "CA",
      "phone": "6473511188",
      "lat": 43.665477,
      "lng": -79.408883,
      "price": 2,
      "reserve_url": "http://www.opentable.com/single.aspx?rid=88234",
      "mobile_reserve_url": "http://mobile.opentable.com/opentable/?restId=88234",
      "image_url": "https://www.opentable.com/img/restimages/88234.jpg"
    },
    "88828": {
      "id": 88828,
      "name": "Torito Tapas",
      "address": "276 Agusta Ave.,",
      "city": "Toronto",
      "state": "ON",
      "area": "Toronto / SW Ontario",
      "postal_code": "M5T 2L9",
      "country": "CA",
      "phone": "4169617373",
      "lat": 43.6568,
      "lng": -79.403102,
      "price": 2,
      "reserve_url": "http://www.opentable.com/single.aspx?rid=88828",
      "mobile_reserve_url": "http://mobile.opentable.com/opentable/?restId=88828",
      "image_url": "https://www.opentable.com/img/restimages/88828.jpg"
    },
    "88888": {
      "id": 88888,
      "name": "Queen Margherita Pizza- Leslieville",
      "address": "1402 Queen St E",
      "city": "Toronto",
      "state": "ON",
      "area": "Toronto / SW Ontario",
      "postal_code": "M4L 1C9",
      "country": "CA",
      "phone": "4164666555",
      "lat": 43.664704,
      "lng": -79.324169,
      "price": 2,
      "reserve_url": "http://www.opentable.com/single.aspx?rid=88888",
      "mobile_reserve_url": "http://mobile.opentable.com/opentable/?restId=88888",
      "image_url": "https://www.opentable.com/img/restimages/88888.jpg"
    },
    "89899": {
      "id": 89899,
      "name": "La Bruschetta",
      "address": "1317 St. Clair West",
      "city": "Toronto",
      "state": "ON",
      "area": "Toronto / SW Ontario",
      "postal_code": "M6E 1C2",
      "country": "CA",
      "phone": "4166568622",
      "lat": 43.67789,
      "lng": -79.442762,
      "price": 2,
      "reserve_url": "http://www.opentable.com/single.aspx?rid=89899",
      "mobile_reserve_url": "http://mobile.opentable.com/opentable/?restId=89899",
      "image_url": "https://www.opentable.com/img/restimages/89899.jpg"
    },
    "89974": {
      "id": 89974,
      "name": "Kirei Sushi Bar",
      "address": "81 Church Street",
      "city": "Toronto",
      "state": "ON",
      "area": "Toronto / SW Ontario",
      "postal_code": "M5C2G2",
      "country": "CA",
      "phone": "4162149393",
      "lat": 43.651765,
      "lng": -79.375018,
      "price": 2,
      "reserve_url": "http://www.opentable.com/single.aspx?rid=89974",
      "mobile_reserve_url": "http://mobile.opentable.com/opentable/?restId=89974",
      "image_url": "https://www.opentable.com/img/restimages/89974.jpg"
    },
    "90547": {
      "id": 90547,
      "name": "Woodlot",
      "address": "293 Palmerston Ave",
      "city": "Toronto",
      "state": "ON",
      "area": "Toronto / SW Ontario",
      "postal_code": "M6J 2J3",
      "country": "CA",
      "phone": "6473426307",
      "lat": 43.655961,
      "lng": -79.41013,
      "price": 3,
      "reserve_url": "http://www.opentable.com/single.aspx?rid=90547",
      "mobile_reserve_url": "http://mobile.opentable.com/opentable/?restId=90547",
      "image_url": "https://www.opentable.com/img/restimages/90547.jpg"
    },
    "91813": {
      "id": 91813,
      "name": "Church Aperitivo Bar",
      "address": "1090 Queen Street West",
      "city": "Toronto",
      "state": "ON",
      "area": "Toronto / SW Ontario",
      "postal_code": "M6J 1H7",
      "country": "CA",
      "phone": "4165371090",
      "lat": 43.643432,
      "lng": -79.422272,
      "price": 2,
      "reserve_url": "http://www.opentable.com/single.aspx?rid=91813",
      "mobile_reserve_url": "http://mobile.opentable.com/opentable/?restId=91813",
      "image_url": "https://www.opentable.com/img/restimages/91813.jpg"
    },
    "91948": {
      "id": 91948,
      "name": "Edulis Restaurant",
      "address": "169 Niagara Street",
      "city": "Toronto",
      "state": "ON",
      "area": "Toronto / SW Ontario",
      "postal_code": "M5V 1C9",
      "country": "CA",
      "phone": "4167034222",
      "lat": 43.641939,
      "lng": -79.406543,
      "price": 3,
      "reserve_url": "http://www.opentable.com/single.aspx?rid=91948",
      "mobile_reserve_url": "http://mobile.opentable.com/opentable/?restId=91948",
      "image_url": "https://www.opentable.com/img/restimages/91948.jpg"
    },
    "93274": {
      "id": 93274,
      "name": "Mideastro Thornhill",
      "address": "8020 Bathurst St",
      "city": "Toronto",
      "state": "ON",
      "area": "Toronto / SW Ontario",
      "postal_code": "L4J 7W5",
      "country": "CA",
      "phone": "9058890060x",
      "lat": 43.816095,
      "lng": -79.451719,
      "price": 2,
      "reserve_url": "http://www.opentable.com/single.aspx?rid=93274",
      "mobile_reserve_url": "http://mobile.opentable.com/opentable/?restId=93274",
      "image_url": "https://www.opentable.com/img/restimages/93274.jpg"
    },
    "93706": {
      "id": 93706,
      "name": "John & Sons Oyster House - Uptown",
      "address": "1 Balmoral Ave, unit 7",
      "city": "Toronto",
      "state": "ON",
      "area": "Toronto / SW Ontario",
      "postal_code": "M4V 3B9",
      "country": "CA",
      "phone": "4165150551",
      "lat": 43.685849,
      "lng": -79.393232,
      "price": 3,
      "reserve_url": "http://www.opentable.com/single.aspx?rid=93706",
      "mobile_reserve_url": "http://mobile.opentable.com/opentable/?restId=93706",
      "image_url": "https://www.opentable.com/img/restimages/93706.jpg"
    },
    "94033": {
      "id": 94033,
      "name": "Bar Mercurio Toronto",
      "address": "270 Bloor St. West",
      "city": "Toronto",
      "state": "ON",
      "area": "Toronto / SW Ontario",
      "postal_code": "M5S 1V8",
      "country": "CA",
      "phone": "4169603877x",
      "lat": 43.667536,
      "lng": -79.400422,
      "price": 2,
      "reserve_url": "http://www.opentable.com/single.aspx?rid=94033",
      "mobile_reserve_url": "http://mobile.opentable.com/opentable/?restId=94033",
      "image_url": "https://www.opentable.com/img/restimages/94033.jpg"
    },
    "94039": {
      "id": 94039,
      "name": "Cabal",
      "address": "782 King Street West,",
      "city": "Toronto",
      "state": "ON",
      "area": "Toronto / SW Ontario",
      "postal_code": "M5V 1N6",
      "country": "CA",
      "phone": "6473428866x",
      "lat": 43.643354,
      "lng": -79.406269,
      "price": 2,
      "reserve_url": "http://www.opentable.com/single.aspx?rid=94039",
      "mobile_reserve_url": "http://mobile.opentable.com/opentable/?restId=94039",
      "image_url": "https://www.opentable.com/img/restimages/94039.jpg"
    },
    "94411": {
      "id": 94411,
      "name": "BOSK at Shangri-La Hotel Toronto",
      "address": "188 University Avenue",
      "city": "Toronto",
      "state": "ON",
      "area": "Toronto / SW Ontario",
      "postal_code": "M5H 0A3",
      "country": "CA",
      "phone": "6477888888x8858",
      "lat": 43.649279,
      "lng": -79.385856,
      "price": 4,
      "reserve_url": "http://www.opentable.com/single.aspx?rid=94411",
      "mobile_reserve_url": "http://mobile.opentable.com/opentable/?restId=94411",
      "image_url": "https://www.opentable.com/img/restimages/94411.jpg"
    },
    "94702": {
      "id": 94702,
      "name": "Quanto Basta- Toronto",
      "address": "1112 Yonge Street",
      "city": "Toronto",
      "state": "ON",
      "area": "Toronto / SW Ontario",
      "postal_code": "M4W 2L6",
      "country": "CA",
      "phone": "4169623141",
      "lat": 43.678794,
      "lng": -79.39028,
      "price": 3,
      "reserve_url": "http://www.opentable.com/single.aspx?rid=94702",
      "mobile_reserve_url": "http://mobile.opentable.com/opentable/?restId=94702",
      "image_url": "https://www.opentable.com/img/restimages/94702.jpg"
    },
    "95290": {
      "id": 95290,
      "name": "The Burger Cellar",
      "address": "3391 Yonge Street",
      "city": "Toronto",
      "state": "ON",
      "area": "Toronto / SW Ontario",
      "postal_code": "M4N 2L8",
      "country": "CA",
      "phone": "6473450084x",
      "lat": 43.732443,
      "lng": -79.404129,
      "price": 2,
      "reserve_url": "http://www.opentable.com/single.aspx?rid=95290",
      "mobile_reserve_url": "http://mobile.opentable.com/opentable/?restId=95290",
      "image_url": "https://www.opentable.com/img/restimages/95290.jpg"
    },
    "95575": {
      "id": 95575,
      "name": "Lil' Baci - Yonge st",
      "address": "2013 Yonge St",
      "city": "Toronto",
      "state": "ON",
      "area": "Toronto / SW Ontario",
      "postal_code": "M4S 1Z9",
      "country": "CA",
      "phone": "6477486300",
      "lat": 43.701084,
      "lng": -79.397003,
      "price": 2,
      "reserve_url": "http://www.opentable.com/single.aspx?rid=95575",
      "mobile_reserve_url": "http://mobile.opentable.com/opentable/?restId=95575",
      "image_url": "https://www.opentable.com/img/restimages/95575.jpg"
    },
    "95605": {
      "id": 95605,
      "name": "Lil' Baci - Queen St",
      "address": "892 Queen St E",
      "city": "Toronto",
      "state": "ON",
      "area": "Toronto / SW Ontario",
      "postal_code": "M4M 1J3",
      "country": "CA",
      "phone": "4164654888",
      "lat": 43.660454,
      "lng": -79.343124,
      "price": 2,
      "reserve_url": "http://www.opentable.com/single.aspx?rid=95605",
      "mobile_reserve_url": "http://mobile.opentable.com/opentable/?restId=95605",
      "image_url": "https://www.opentable.com/img/restimages/95605.jpg"
    },
    "95983": {
      "id": 95983,
      "name": "The Blake House",
      "address": "449 Jarvis St",
      "city": "Toronto",
      "state": "ON",
      "area": "Toronto / SW Ontario",
      "postal_code": "M4Y 2G8",
      "country": "CA",
      "phone": "4169751867",
      "lat": 43.665281,
      "lng": -79.378081,
      "price": 2,
      "reserve_url": "http://www.opentable.com/single.aspx?rid=95983",
      "mobile_reserve_url": "http://mobile.opentable.com/opentable/?restId=95983",
      "image_url": "https://www.opentable.com/img/restimages/95983.jpg"
    },
    "96070": {
      "id": 96070,
      "name": "Bar Italia",
      "address": "582 College Street",
      "city": "Toronto",
      "state": "ON",
      "area": "Toronto / SW Ontario",
      "postal_code": "M6G 1B3",
      "country": "CA",
      "phone": "4165353621x",
      "lat": 43.655437,
      "lng": -79.41335,
      "price": 2,
      "reserve_url": "http://www.opentable.com/single.aspx?rid=96070",
      "mobile_reserve_url": "http://mobile.opentable.com/opentable/?restId=96070",
      "image_url": "https://www.opentable.com/img/restimages/96070.jpg"
    },
    "96193": {
      "id": 96193,
      "name": "Skin + Bones",
      "address": "980 Queen St East",
      "city": "Toronto",
      "state": "ON",
      "area": "Toronto / SW Ontario",
      "postal_code": "M4M 1K1",
      "country": "CA",
      "phone": "4165245209x",
      "lat": 43.661216,
      "lng": -79.339732,
      "price": 3,
      "reserve_url": "http://www.opentable.com/single.aspx?rid=96193",
      "mobile_reserve_url": "http://mobile.opentable.com/opentable/?restId=96193",
      "image_url": "https://www.opentable.com/img/restimages/96193.jpg"
    },
    "97009": {
      "id": 97009,
      "name": "Sotto Voce Wine & Pasta Bar",
      "address": "595 College St.",
      "city": "Toronto",
      "state": "ON",
      "area": "Toronto / SW Ontario",
      "postal_code": "M6G 1A9",
      "country": "CA",
      "phone": "4165364564x",
      "lat": 43.655234,
      "lng": -79.413809,
      "price": 2,
      "reserve_url": "http://www.opentable.com/single.aspx?rid=97009",
      "mobile_reserve_url": "http://mobile.opentable.com/opentable/?restId=97009",
      "image_url": "https://www.opentable.com/img/restimages/97009.jpg"
    },
    "97660": {
      "id": 97660,
      "name": "Queen Margherita Pizza - Jane",
      "address": "785 Annette Street",
      "city": "Toronto",
      "state": "ON",
      "area": "Toronto / SW Ontario",
      "postal_code": "m6S 2E2",
      "country": "CA",
      "phone": "6473454466",
      "lat": 43.658318,
      "lng": -79.487948,
      "price": 2,
      "reserve_url": "http://www.opentable.com/single.aspx?rid=97660",
      "mobile_reserve_url": "http://mobile.opentable.com/opentable/?restId=97660",
      "image_url": "https://www.opentable.com/img/restimages/97660.jpg"
    },
    "97744": {
      "id": 97744,
      "name": "Museum Tavern",
      "address": "208 Bloor St. W.",
      "city": "Toronto",
      "state": "ON",
      "area": "Toronto / SW Ontario",
      "postal_code": "M5S 3B4",
      "country": "CA",
      "phone": "4169200110",
      "lat": 43.668563,
      "lng": -79.395879,
      "price": 3,
      "reserve_url": "http://www.opentable.com/single.aspx?rid=97744",
      "mobile_reserve_url": "http://mobile.opentable.com/opentable/?restId=97744",
      "image_url": "https://www.opentable.com/img/restimages/97744.jpg"
    },
    "97996": {
      "id": 97996,
      "name": "Stazione Centrale",
      "address": "820 St. Clair West",
      "city": "Toronto",
      "state": "ON",
      "area": "Toronto / SW Ontario",
      "postal_code": "M6C 1B6",
      "country": "CA",
      "phone": "4166564817",
      "lat": 43.680708,
      "lng": -79.430696,
      "price": 2,
      "reserve_url": "http://www.opentable.com/single.aspx?rid=97996",
      "mobile_reserve_url": "http://mobile.opentable.com/opentable/?restId=97996",
      "image_url": "https://www.opentable.com/img/restimages/97996.jpg"
    },
    "98122": {
      "id": 98122,
      "name": "Smith Bros. Steakhouse Tavern",
      "address": "880 Warden Ave.",
      "city": "Toronto",
      "state": "ON",
      "area": "Toronto / SW Ontario",
      "postal_code": "M1L 4W6",
      "country": "CA",
      "phone": "4167513100x",
      "lat": 43.728779,
      "lng": -79.288432,
      "price": 3,
      "reserve_url": "http://www.opentable.com/single.aspx?rid=98122",
      "mobile_reserve_url": "http://mobile.opentable.com/opentable/?restId=98122",
      "image_url": "https://www.opentable.com/img/restimages/98122.jpg"
    },
    "98248": {
      "id": 98248,
      "name": "Piola - Toronto",
      "address": "1165 Queen St. West",
      "city": "Toronto",
      "state": "ON",
      "area": "Toronto / SW Ontario",
      "postal_code": "M6J 1J4",
      "country": "CA",
      "phone": "4164774652x",
      "lat": 43.642882,
      "lng": -79.425388,
      "price": 2,
      "reserve_url": "http://www.opentable.com/single.aspx?rid=98248",
      "mobile_reserve_url": "http://mobile.opentable.com/opentable/?restId=98248",
      "image_url": "https://www.opentable.com/img/restimages/98248.jpg"
    },
    "98794": {
      "id": 98794,
      "name": "La Maquette",
      "address": "111 King St. East",
      "city": "Toronto",
      "state": "ON",
      "area": "Toronto / SW Ontario",
      "postal_code": "M5C 1G6",
      "country": "CA",
      "phone": "4163668191x",
      "lat": 43.649921,
      "lng": -79.373891,
      "price": 2,
      "reserve_url": "http://www.opentable.com/single.aspx?rid=98794",
      "mobile_reserve_url": "http://mobile.opentable.com/opentable/?restId=98794",
      "image_url": "https://www.opentable.com/img/restimages/98794.jpg"
    },
    "99460": {
      "id": 99460,
      "name": "Shoeless Joe's Sport Grill - King",
      "address": "276 King St W",
      "city": "Toronto",
      "state": "ON",
      "area": "Toronto / SW Ontario",
      "postal_code": "M5V 1J2",
      "country": "CA",
      "phone": "4165964203",
      "lat": 43.64733,
      "lng": -79.388353,
      "price": 2,
      "reserve_url": "http://www.opentable.com/single.aspx?rid=99460",
      "mobile_reserve_url": "http://mobile.opentable.com/opentable/?restId=99460",
      "image_url": "https://www.opentable.com/img/restimages/99460.jpg"
    },
    "99466": {
      "id": 99466,
      "name": "Hopgood's Foodliner",
      "address": "325 Roncesvalles Avenue",
      "city": "Toronto",
      "state": "ON",
      "area": "Toronto / SW Ontario",
      "postal_code": "M6R 2M6",
      "country": "CA",
      "phone": "4165332723x",
      "lat": 43.648825,
      "lng": -79.449882,
      "price": 2,
      "reserve_url": "http://www.opentable.com/single.aspx?rid=99466",
      "mobile_reserve_url": "http://mobile.opentable.com/opentable/?restId=99466",
      "image_url": "https://www.opentable.com/img/restimages/99466.jpg"
    },
    "100138": {
      "id": 100138,
      "name": "Yuzu No Hana",
      "address": "236 Adelaide St W",
      "city": "Toronto",
      "state": "ON",
      "area": "Toronto / SW Ontario",
      "postal_code": "M5H 1W7",
      "country": "CA",
      "phone": "4162059808x",
      "lat": 43.648372,
      "lng": -79.388295,
      "price": 2,
      "reserve_url": "http://www.opentable.com/single.aspx?rid=100138",
      "mobile_reserve_url": "http://mobile.opentable.com/opentable/?restId=100138",
      "image_url": "https://www.opentable.com/img/restimages/100138.jpg"
    },
    "100435": {
      "id": 100435,
      "name": "Bravi Ristorante",
      "address": "40 Wellington St. East",
      "city": "Toronto",
      "state": "ON",
      "area": "Toronto / SW Ontario",
      "postal_code": "M5E 1C7",
      "country": "CA",
      "phone": "4163689030x",
      "lat": 43.648476,
      "lng": -79.37495,
      "price": 3,
      "reserve_url": "http://www.opentable.com/single.aspx?rid=100435",
      "mobile_reserve_url": "http://mobile.opentable.com/opentable/?restId=100435",
      "image_url": "https://www.opentable.com/img/restimages/100435.jpg"
    },
    "100516": {
      "id": 100516,
      "name": "Bent",
      "address": "777 Dundas St. W.",
      "city": "Toronto",
      "state": "ON",
      "area": "Toronto / SW Ontario",
      "postal_code": "M6J 1V1",
      "country": "CA",
      "phone": "6473520092x",
      "lat": 43.652024,
      "lng": -79.407374,
      "price": 2,
      "reserve_url": "http://www.opentable.com/single.aspx?rid=100516",
      "mobile_reserve_url": "http://mobile.opentable.com/opentable/?restId=100516",
      "image_url": "https://www.opentable.com/img/restimages/100516.jpg"
    },
    "101176": {
      "id": 101176,
      "name": "Against The Grain Urban Tavern- Leaside",
      "address": "87 Laird Drive",
      "city": "Toronto",
      "state": "ON",
      "area": "Toronto / SW Ontario",
      "postal_code": "M4G 3T7",
      "country": "CA",
      "phone": "6477482840x",
      "lat": 43.705395,
      "lng": -79.361482,
      "price": 2,
      "reserve_url": "http://www.opentable.com/single.aspx?rid=101176",
      "mobile_reserve_url": "http://mobile.opentable.com/opentable/?restId=101176",
      "image_url": "https://www.opentable.com/img/restimages/101176.jpg"
    },
    "101185": {
      "id": 101185,
      "name": "Bar Vespa",
      "address": "167 East Liberty Street",
      "city": "Toronto",
      "state": "ON",
      "area": "Toronto / SW Ontario",
      "postal_code": "M6K3K4",
      "country": "CA",
      "phone": "4165338377",
      "lat": 43.638439,
      "lng": -79.41743,
      "price": 2,
      "reserve_url": "http://www.opentable.com/single.aspx?rid=101185",
      "mobile_reserve_url": "http://mobile.opentable.com/opentable/?restId=101185",
      "image_url": "https://www.opentable.com/img/restimages/101185.jpg"
    },
    "102922": {
      "id": 102922,
      "name": "Pero Restaurant and Lounge",
      "address": "812 Bloor St. West",
      "city": "Toronto",
      "state": "ON",
      "area": "Toronto / SW Ontario",
      "postal_code": "M6G1L9",
      "country": "CA",
      "phone": "4169157225",
      "lat": 43.662739,
      "lng": -79.422686,
      "price": 2,
      "reserve_url": "http://www.opentable.com/single.aspx?rid=102922",
      "mobile_reserve_url": "http://mobile.opentable.com/opentable/?restId=102922",
      "image_url": "https://www.opentable.com/img/restimages/102922.jpg"
    },
    "103069": {
      "id": 103069,
      "name": "Vero Trattoria",
      "address": "1580 Bayview Ave",
      "city": "Toronto",
      "state": "ON",
      "area": "Toronto / SW Ontario",
      "postal_code": "M4G 3B7",
      "country": "CA",
      "phone": "4163228376x",
      "lat": 43.708635,
      "lng": -79.376132,
      "price": 2,
      "reserve_url": "http://www.opentable.com/single.aspx?rid=103069",
      "mobile_reserve_url": "http://mobile.opentable.com/opentable/?restId=103069",
      "image_url": "https://www.opentable.com/img/restimages/103069.jpg"
    },
    "103258": {
      "id": 103258,
      "name": "Creme Brasserie",
      "address": "162 Cumberland St.",
      "city": "Toronto",
      "state": "ON",
      "area": "Toronto / SW Ontario",
      "postal_code": "M5R 3N5",
      "country": "CA",
      "phone": "4169627363x",
      "lat": 43.66984,
      "lng": -79.393611,
      "price": 3,
      "reserve_url": "http://www.opentable.com/single.aspx?rid=103258",
      "mobile_reserve_url": "http://mobile.opentable.com/opentable/?restId=103258",
      "image_url": "https://www.opentable.com/img/restimages/103258.jpg"
    },
    "103573": {
      "id": 103573,
      "name": "Coquine",
      "address": "2075 Yonge St.",
      "city": "Toronto",
      "state": "ON",
      "area": "Toronto / SW Ontario",
      "postal_code": "M4S 2A4",
      "country": "CA",
      "phone": "4163226767",
      "lat": 43.703611,
      "lng": -79.397477,
      "price": 3,
      "reserve_url": "http://www.opentable.com/single.aspx?rid=103573",
      "mobile_reserve_url": "http://mobile.opentable.com/opentable/?restId=103573",
      "image_url": "https://www.opentable.com/img/restimages/103573.jpg"
    },
    "103798": {
      "id": 103798,
      "name": "Tabule on Queen",
      "address": "810 Queen St East",
      "city": "Toronto",
      "state": "ON",
      "area": "Toronto / SW Ontario",
      "postal_code": "M4M 1H7",
      "country": "CA",
      "phone": "4164652500",
      "lat": 43.659743,
      "lng": -79.346299,
      "price": 2,
      "reserve_url": "http://www.opentable.com/single.aspx?rid=103798",
      "mobile_reserve_url": "http://mobile.opentable.com/opentable/?restId=103798",
      "image_url": "https://www.opentable.com/img/restimages/103798.jpg"
    },
    "105196": {
      "id": 105196,
      "name": "Hapa Izakaya - Toronto",
      "address": "602 College Street",
      "city": "Toronto",
      "state": "ON",
      "area": "Toronto / SW Ontario",
      "postal_code": "M6G 1B4",
      "country": "CA",
      "phone": "6477484272x",
      "lat": 43.655251,
      "lng": -79.414206,
      "price": 2,
      "reserve_url": "http://www.opentable.com/single.aspx?rid=105196",
      "mobile_reserve_url": "http://mobile.opentable.com/opentable/?restId=105196",
      "image_url": "https://www.opentable.com/img/restimages/105196.jpg"
    },
    "105910": {
      "id": 105910,
      "name": "Hudson Kitchen",
      "address": "800 Dundas St. West",
      "city": "Toronto",
      "state": "ON",
      "area": "Toronto / SW Ontario",
      "postal_code": "M6J 1V1",
      "country": "CA",
      "phone": "4166448839x",
      "lat": 43.651834,
      "lng": -79.408413,
      "price": 2,
      "reserve_url": "http://www.opentable.com/single.aspx?rid=105910",
      "mobile_reserve_url": "http://mobile.opentable.com/opentable/?restId=105910",
      "image_url": "https://www.opentable.com/img/restimages/105910.jpg"
    },
    "105922": {
      "id": 105922,
      "name": "Woods Restaurant & Bar",
      "address": "45 Colborne Street",
      "city": "Toronto",
      "state": "ON",
      "area": "Toronto / SW Ontario",
      "postal_code": "M5E 1E3",
      "country": "CA",
      "phone": "4162149918x",
      "lat": 43.648996,
      "lng": -79.375032,
      "price": 3,
      "reserve_url": "http://www.opentable.com/single.aspx?rid=105922",
      "mobile_reserve_url": "http://mobile.opentable.com/opentable/?restId=105922",
      "image_url": "https://www.opentable.com/img/restimages/105922.jpg"
    },
    "105955": {
      "id": 105955,
      "name": "Cibo Wine Bar Toronto",
      "address": "522 King Street West",
      "city": "Toronto",
      "state": "ON",
      "area": "Toronto / SW Ontario",
      "postal_code": "M5V 1K4",
      "country": "CA",
      "phone": "4165043939x",
      "lat": 43.645303,
      "lng": -79.397621,
      "price": 2,
      "reserve_url": "http://www.opentable.com/single.aspx?rid=105955",
      "mobile_reserve_url": "http://mobile.opentable.com/opentable/?restId=105955",
      "image_url": "https://www.opentable.com/img/restimages/105955.jpg"
    },
    "106507": {
      "id": 106507,
      "name": "Firkin on Yonge",
      "address": "207 Yonge St.",
      "city": "Toronto",
      "state": "ON",
      "area": "Toronto / SW Ontario",
      "postal_code": "M5B 2H1",
      "country": "CA",
      "phone": "6473450455",
      "lat": 43.653479,
      "lng": -79.379691,
      "price": 2,
      "reserve_url": "http://www.opentable.com/single.aspx?rid=106507",
      "mobile_reserve_url": "http://mobile.opentable.com/opentable/?restId=106507",
      "image_url": "https://www.opentable.com/img/restimages/106507.jpg"
    },
    "106651": {
      "id": 106651,
      "name": "The Chase Fish & Oyster",
      "address": "10 Temperance St.",
      "city": "Toronto",
      "state": "ON",
      "area": "Toronto / SW Ontario",
      "postal_code": "M5H 1Y5",
      "country": "CA",
      "phone": "6473487000",
      "lat": 43.651063,
      "lng": -79.37935,
      "price": 3,
      "reserve_url": "http://www.opentable.com/single.aspx?rid=106651",
      "mobile_reserve_url": "http://mobile.opentable.com/opentable/?restId=106651",
      "image_url": "https://www.opentable.com/img/restimages/106651.jpg"
    },
    "106657": {
      "id": 106657,
      "name": "The Chase",
      "address": "10 Temperance St.",
      "city": "Toronto",
      "state": "ON",
      "area": "Toronto / SW Ontario",
      "postal_code": "M5H 1Y5",
      "country": "CA",
      "phone": "6473487000",
      "lat": 43.651063,
      "lng": -79.37935,
      "price": 4,
      "reserve_url": "http://www.opentable.com/single.aspx?rid=106657",
      "mobile_reserve_url": "http://mobile.opentable.com/opentable/?restId=106657",
      "image_url": "https://www.opentable.com/img/restimages/106657.jpg"
    },
    "106750": {
      "id": 106750,
      "name": "Vita Sociale",
      "address": "2472 Yonge Street",
      "city": "Toronto",
      "state": "ON",
      "area": "Toronto / SW Ontario",
      "postal_code": "M4P 2H5",
      "country": "CA",
      "phone": "4164832211x",
      "lat": 43.711449,
      "lng": -79.399531,
      "price": 2,
      "reserve_url": "http://www.opentable.com/single.aspx?rid=106750",
      "mobile_reserve_url": "http://mobile.opentable.com/opentable/?restId=106750",
      "image_url": "https://www.opentable.com/img/restimages/106750.jpg"
    },
    "106795": {
      "id": 106795,
      "name": "Osteria Dei Ganzi",
      "address": "504 Jarvis Street",
      "city": "Toronto",
      "state": "ON",
      "area": "Toronto / SW Ontario",
      "postal_code": "M4Y 2H6",
      "country": "CA",
      "phone": "6473486520x",
      "lat": 43.667232,
      "lng": -79.378977,
      "price": 2,
      "reserve_url": "http://www.opentable.com/single.aspx?rid=106795",
      "mobile_reserve_url": "http://mobile.opentable.com/opentable/?restId=106795",
      "image_url": "https://www.opentable.com/img/restimages/106795.jpg"
    },
    "106945": {
      "id": 106945,
      "name": "Origin North",
      "address": "2901 Bayview Ave",
      "city": "Toronto",
      "state": "ON",
      "area": "Toronto / SW Ontario",
      "postal_code": "M2K 1E6",
      "country": "CA",
      "phone": "4164798833x",
      "lat": 43.76714,
      "lng": -79.386666,
      "price": 3,
      "reserve_url": "http://www.opentable.com/single.aspx?rid=106945",
      "mobile_reserve_url": "http://mobile.opentable.com/opentable/?restId=106945",
      "image_url": "https://www.opentable.com/img/restimages/106945.jpg"
    },
    "107143": {
      "id": 107143,
      "name": "Cafe at The Gladstone Hotel",
      "address": "1214 Queen St W",
      "city": "Toronto",
      "state": "ON",
      "area": "Toronto / SW Ontario",
      "postal_code": "M6J 1J6",
      "country": "CA",
      "phone": "4165314635x",
      "lat": 43.642559,
      "lng": -79.427117,
      "price": 2,
      "reserve_url": "http://www.opentable.com/single.aspx?rid=107143",
      "mobile_reserve_url": "http://mobile.opentable.com/opentable/?restId=107143",
      "image_url": "https://www.opentable.com/img/restimages/107143.jpg"
    },
    "107521": {
      "id": 107521,
      "name": "Toni Bulloni",
      "address": "156 Cumberland St",
      "city": "Toronto",
      "state": "ON",
      "area": "Toronto / SW Ontario",
      "postal_code": "M5R 1A8",
      "country": "CA",
      "phone": "4169677676",
      "lat": 43.670386,
      "lng": -79.390811,
      "price": 2,
      "reserve_url": "http://www.opentable.com/single.aspx?rid=107521",
      "mobile_reserve_url": "http://mobile.opentable.com/opentable/?restId=107521",
      "image_url": "https://www.opentable.com/img/restimages/107521.jpg"
    },
    "108115": {
      "id": 108115,
      "name": "Batifole Restaurant",
      "address": "744 Gerrard St E",
      "city": "Toronto",
      "state": "ON",
      "area": "Toronto / SW Ontario",
      "postal_code": "M4M 1Y3",
      "country": "CA",
      "phone": "4164629965x",
      "lat": 43.666708,
      "lng": -79.347315,
      "price": 3,
      "reserve_url": "http://www.opentable.com/single.aspx?rid=108115",
      "mobile_reserve_url": "http://mobile.opentable.com/opentable/?restId=108115",
      "image_url": "https://www.opentable.com/img/restimages/108115.jpg"
    },
    "108499": {
      "id": 108499,
      "name": "Trattoria Taverniti",
      "address": "591 College Street",
      "city": "Toronto",
      "state": "ON",
      "area": "Toronto / SW Ontario",
      "postal_code": "M6G 1B2",
      "country": "CA",
      "phone": "4165370078x",
      "lat": 43.655204,
      "lng": -79.413547,
      "price": 2,
      "reserve_url": "http://www.opentable.com/single.aspx?rid=108499",
      "mobile_reserve_url": "http://mobile.opentable.com/opentable/?restId=108499",
      "image_url": "https://www.opentable.com/img/restimages/108499.jpg"
    },
    "108505": {
      "id": 108505,
      "name": "Salt Wine Bar",
      "address": "225 Ossington Ave",
      "city": "Toronto",
      "state": "ON",
      "area": "Toronto / SW Ontario",
      "postal_code": "M6J 2Z8",
      "country": "CA",
      "phone": "4165337258",
      "lat": 43.649015,
      "lng": -79.420648,
      "price": 3,
      "reserve_url": "http://www.opentable.com/single.aspx?rid=108505",
      "mobile_reserve_url": "http://mobile.opentable.com/opentable/?restId=108505",
      "image_url": "https://www.opentable.com/img/restimages/108505.jpg"
    },
    "108508": {
      "id": 108508,
      "name": "Chiado",
      "address": "864 College St.",
      "city": "Toronto",
      "state": "ON",
      "area": "Toronto / SW Ontario",
      "postal_code": "M6H 1A3",
      "country": "CA",
      "phone": "4165381910",
      "lat": 43.654112,
      "lng": -79.424092,
      "price": 4,
      "reserve_url": "http://www.opentable.com/single.aspx?rid=108508",
      "mobile_reserve_url": "http://mobile.opentable.com/opentable/?restId=108508",
      "image_url": "https://www.opentable.com/img/restimages/108508.jpg"
    },
    "108838": {
      "id": 108838,
      "name": "Paralia (formerly Trinity Taverna)",
      "address": "1681 Lake Shore Blvd East",
      "city": "Toronto",
      "state": "ON",
      "area": "Toronto / SW Ontario",
      "postal_code": "M4L 3W6",
      "country": "CA",
      "phone": "4166983456x",
      "lat": 43.663336,
      "lng": -79.309757,
      "price": 3,
      "reserve_url": "http://www.opentable.com/single.aspx?rid=108838",
      "mobile_reserve_url": "http://mobile.opentable.com/opentable/?restId=108838",
      "image_url": "https://www.opentable.com/img/restimages/108838.jpg"
    },
    "109138": {
      "id": 109138,
      "name": "Le Paradis",
      "address": "166 Bedford Rd",
      "city": "Toronto",
      "state": "ON",
      "area": "Toronto / SW Ontario",
      "postal_code": "M5R 2K9",
      "country": "CA",
      "phone": "4169210995",
      "lat": 43.675734,
      "lng": -79.400226,
      "price": 2,
      "reserve_url": "http://www.opentable.com/single.aspx?rid=109138",
      "mobile_reserve_url": "http://mobile.opentable.com/opentable/?restId=109138",
      "image_url": "https://www.opentable.com/img/restimages/109138.jpg"
    },
    "109396": {
      "id": 109396,
      "name": "Trio Ristorante & Pizzeria",
      "address": "3239 Yonge St.",
      "city": "Toronto",
      "state": "ON",
      "area": "Toronto / SW Ontario",
      "postal_code": "M4N 2L5",
      "country": "CA",
      "phone": "4164865786",
      "lat": 43.728891,
      "lng": -79.403053,
      "price": 2,
      "reserve_url": "http://www.opentable.com/single.aspx?rid=109396",
      "mobile_reserve_url": "http://mobile.opentable.com/opentable/?restId=109396",
      "image_url": "https://www.opentable.com/img/restimages/109396.jpg"
    },
    "111148": {
      "id": 111148,
      "name": "La Bettola Osteria",
      "address": "106 Victoria Street",
      "city": "Toronto",
      "state": "ON",
      "area": "Toronto / SW Ontario",
      "postal_code": "M5C 2B4",
      "country": "CA",
      "phone": "4165049998",
      "lat": 43.652023,
      "lng": -79.377859,
      "price": 3,
      "reserve_url": "http://www.opentable.com/single.aspx?rid=111148",
      "mobile_reserve_url": "http://mobile.opentable.com/opentable/?restId=111148",
      "image_url": "https://www.opentable.com/img/restimages/111148.jpg"
    },
    "111154": {
      "id": 111154,
      "name": "Luckee Restaurant",
      "address": "328 Wellington St W",
      "city": "Toronto",
      "state": "ON",
      "area": "Toronto / SW Ontario",
      "postal_code": "M5V 3T4",
      "country": "CA",
      "phone": "4169350400x",
      "lat": 43.644697,
      "lng": -79.392395,
      "price": 3,
      "reserve_url": "http://www.opentable.com/single.aspx?rid=111154",
      "mobile_reserve_url": "http://mobile.opentable.com/opentable/?restId=111154",
      "image_url": "https://www.opentable.com/img/restimages/111154.jpg"
    },
    "111361": {
      "id": 111361,
      "name": "Moroco Chocolat",
      "address": "99 Yorkville Ave.",
      "city": "Toronto",
      "state": "ON",
      "area": "Toronto / SW Ontario",
      "postal_code": "M5R 3K3",
      "country": "CA",
      "phone": "4169612202",
      "lat": 43.670857,
      "lng": -79.391991,
      "price": 3,
      "reserve_url": "http://www.opentable.com/single.aspx?rid=111361",
      "mobile_reserve_url": "http://mobile.opentable.com/opentable/?restId=111361",
      "image_url": "https://www.opentable.com/img/restimages/111361.jpg"
    },
    "111754": {
      "id": 111754,
      "name": "Marben",
      "address": "488 Wellington Street West",
      "city": "Toronto",
      "state": "ON",
      "area": "Toronto / SW Ontario",
      "postal_code": "M5V 1E5",
      "country": "CA",
      "phone": "4169791990x",
      "lat": 43.64322,
      "lng": -79.398513,
      "price": 3,
      "reserve_url": "http://www.opentable.com/single.aspx?rid=111754",
      "mobile_reserve_url": "http://mobile.opentable.com/opentable/?restId=111754",
      "image_url": "https://www.opentable.com/img/restimages/111754.jpg"
    },
    "111931": {
      "id": 111931,
      "name": "Scaddabush Italian Kitchen & Bar - Yonge & Gerrard",
      "address": "382 Yonge Street",
      "city": "Toronto",
      "state": "ON",
      "area": "Toronto / SW Ontario",
      "postal_code": "M5B 1S8",
      "country": "CA",
      "phone": "4165978838x",
      "lat": 43.659088,
      "lng": -79.382113,
      "price": 2,
      "reserve_url": "http://www.opentable.com/single.aspx?rid=111931",
      "mobile_reserve_url": "http://mobile.opentable.com/opentable/?restId=111931",
      "image_url": "https://www.opentable.com/img/restimages/111931.jpg"
    },
    "112021": {
      "id": 112021,
      "name": "Reds Midtown Tavern",
      "address": "388 Yonge Street",
      "city": "Toronto",
      "state": "ON",
      "area": "Toronto / SW Ontario",
      "postal_code": "M5B0A4",
      "country": "CA",
      "phone": "4165983535x",
      "lat": 43.659284,
      "lng": -79.382204,
      "price": 2,
      "reserve_url": "http://www.opentable.com/single.aspx?rid=112021",
      "mobile_reserve_url": "http://mobile.opentable.com/opentable/?restId=112021",
      "image_url": "https://www.opentable.com/img/restimages/112021.jpg"
    },
    "112030": {
      "id": 112030,
      "name": "Los Colibris",
      "address": "220 King Street West",
      "city": "Toronto",
      "state": "ON",
      "area": "Toronto / SW Ontario",
      "postal_code": "M5J 1K4",
      "country": "CA",
      "phone": "4169797717x",
      "lat": 43.647201,
      "lng": -79.386928,
      "price": 3,
      "reserve_url": "http://www.opentable.com/single.aspx?rid=112030",
      "mobile_reserve_url": "http://mobile.opentable.com/opentable/?restId=112030",
      "image_url": "https://www.opentable.com/img/restimages/112030.jpg"
    },
    "112033": {
      "id": 112033,
      "name": "El Caballito Tequila Bar",
      "address": "220 King Street West",
      "city": "Toronto",
      "state": "ON",
      "area": "Toronto / SW Ontario",
      "postal_code": "M5H 1K4",
      "country": "CA",
      "phone": "4166289838x",
      "lat": 43.647258,
      "lng": -79.38695,
      "price": 2,
      "reserve_url": "http://www.opentable.com/single.aspx?rid=112033",
      "mobile_reserve_url": "http://mobile.opentable.com/opentable/?restId=112033",
      "image_url": "https://www.opentable.com/img/restimages/112033.jpg"
    },
    "112120": {
      "id": 112120,
      "name": "SpiritHouse",
      "address": "487 Adelaide St. West",
      "city": "Toronto",
      "state": "ON",
      "area": "Toronto / SW Ontario",
      "postal_code": "M5V 1T4",
      "country": "CA",
      "phone": "6472771187x",
      "lat": 43.645625,
      "lng": -79.400872,
      "price": 2,
      "reserve_url": "http://www.opentable.com/single.aspx?rid=112120",
      "mobile_reserve_url": "http://mobile.opentable.com/opentable/?restId=112120",
      "image_url": "https://www.opentable.com/img/restimages/112120.jpg"
    },
    "112426": {
      "id": 112426,
      "name": "Terroni - Queen",
      "address": "720 Queen St. West",
      "city": "Toronto",
      "state": "ON",
      "area": "Toronto / SW Ontario",
      "postal_code": "M6J 1E8",
      "country": "CA",
      "phone": "4165040320x",
      "lat": 43.646221,
      "lng": -79.40918,
      "price": 3,
      "reserve_url": "http://www.opentable.com/single.aspx?rid=112426",
      "mobile_reserve_url": "http://mobile.opentable.com/opentable/?restId=112426",
      "image_url": "https://www.opentable.com/img/restimages/112426.jpg"
    },
    "112723": {
      "id": 112723,
      "name": "Le Papillon on the Park",
      "address": "1001 Eastern Ave",
      "city": "Toronto",
      "state": "ON",
      "area": "Toronto / SW Ontario",
      "postal_code": "M4L 1A8",
      "country": "CA",
      "phone": "4166491001x",
      "lat": 43.663768,
      "lng": -79.319774,
      "price": 3,
      "reserve_url": "http://www.opentable.com/single.aspx?rid=112723",
      "mobile_reserve_url": "http://mobile.opentable.com/opentable/?restId=112723",
      "image_url": "https://www.opentable.com/img/restimages/112723.jpg"
    },
    "112741": {
      "id": 112741,
      "name": "Weslodge Saloon",
      "address": "480 King St. West",
      "city": "Toronto",
      "state": "ON",
      "area": "Toronto / SW Ontario",
      "postal_code": "M5V 1L7",
      "country": "CA",
      "phone": "647-660-0999x",
      "lat": 43.645177,
      "lng": -79.396498,
      "price": 2,
      "reserve_url": "http://www.opentable.com/single.aspx?rid=112741",
      "mobile_reserve_url": "http://mobile.opentable.com/opentable/?restId=112741",
      "image_url": "https://www.opentable.com/img/restimages/112741.jpg"
    },
    "112777": {
      "id": 112777,
      "name": "Byblos - Toronto",
      "address": "11 Duncan Street",
      "city": "Toronto",
      "state": "ON",
      "area": "Toronto / SW Ontario",
      "postal_code": "M5V 3M2",
      "country": "CA",
      "phone": "6476600909",
      "lat": 43.647433,
      "lng": -79.388193,
      "price": 2,
      "reserve_url": "http://www.opentable.com/single.aspx?rid=112777",
      "mobile_reserve_url": "http://mobile.opentable.com/opentable/?restId=112777",
      "image_url": "https://www.opentable.com/img/restimages/112777.jpg"
    },
    "112780": {
      "id": 112780,
      "name": "Patria",
      "address": "478 King St. West",
      "city": "Toronto",
      "state": "ON",
      "area": "Toronto / SW Ontario",
      "postal_code": "M5V 1L7",
      "country": "CA",
      "phone": "4163670505x",
      "lat": 43.645177,
      "lng": -79.396498,
      "price": 2,
      "reserve_url": "http://www.opentable.com/single.aspx?rid=112780",
      "mobile_reserve_url": "http://mobile.opentable.com/opentable/?restId=112780",
      "image_url": "https://www.opentable.com/img/restimages/112780.jpg"
    },
    "113365": {
      "id": 113365,
      "name": "The Carbon Bar",
      "address": "99 Queen St East",
      "city": "Toronto",
      "state": "ON",
      "area": "Toronto / SW Ontario",
      "postal_code": "M5C 1S2",
      "country": "CA",
      "phone": "4169477000x",
      "lat": 43.653309,
      "lng": -79.375052,
      "price": 3,
      "reserve_url": "http://www.opentable.com/single.aspx?rid=113365",
      "mobile_reserve_url": "http://mobile.opentable.com/opentable/?restId=113365",
      "image_url": "https://www.opentable.com/img/restimages/113365.jpg"
    },
    "113515": {
      "id": 113515,
      "name": "Glas Wine Bar",
      "address": "1118 Queen St. E.",
      "city": "Toronto",
      "state": "ON",
      "area": "Toronto / SW Ontario",
      "postal_code": "M4M 1K8",
      "country": "CA",
      "phone": "6473514527x",
      "lat": 43.66214,
      "lng": -79.335584,
      "price": 3,
      "reserve_url": "http://www.opentable.com/single.aspx?rid=113515",
      "mobile_reserve_url": "http://mobile.opentable.com/opentable/?restId=113515",
      "image_url": "https://www.opentable.com/img/restimages/113515.jpg"
    },
    "113623": {
      "id": 113623,
      "name": "Hunter's Landing",
      "address": "82 Fort York Blvd",
      "city": "Toronto",
      "state": "ON",
      "area": "Toronto / SW Ontario",
      "postal_code": "M5V 4A6",
      "country": "CA",
      "phone": "6473526082x",
      "lat": 43.640036,
      "lng": -79.395647,
      "price": 2,
      "reserve_url": "http://www.opentable.com/single.aspx?rid=113623",
      "mobile_reserve_url": "http://mobile.opentable.com/opentable/?restId=113623",
      "image_url": "https://www.opentable.com/img/restimages/113623.jpg"
    },
    "113791": {
      "id": 113791,
      "name": "Union Social Eatery St. Clair",
      "address": "21 St Clair West",
      "city": "Toronto",
      "state": "ON",
      "area": "Toronto / SW Ontario",
      "postal_code": "M4V 1K6",
      "country": "CA",
      "phone": "4169013456x",
      "lat": 43.687826,
      "lng": -79.394971,
      "price": 2,
      "reserve_url": "http://www.opentable.com/single.aspx?rid=113791",
      "mobile_reserve_url": "http://mobile.opentable.com/opentable/?restId=113791",
      "image_url": "https://www.opentable.com/img/restimages/113791.jpg"
    },
    "113926": {
      "id": 113926,
      "name": "Drake One Fifty",
      "address": "150 York Street",
      "city": "Toronto",
      "state": "ON",
      "area": "Toronto / SW Ontario",
      "postal_code": "M5H 3S5",
      "country": "CA",
      "phone": "4163636150x",
      "lat": 43.649354,
      "lng": -79.384684,
      "price": 4,
      "reserve_url": "http://www.opentable.com/single.aspx?rid=113926",
      "mobile_reserve_url": "http://mobile.opentable.com/opentable/?restId=113926",
      "image_url": "https://www.opentable.com/img/restimages/113926.jpg"
    },
    "114148": {
      "id": 114148,
      "name": "Stratus",
      "address": "79 Wellington St. West",
      "city": "Toronto",
      "state": "ON",
      "area": "Toronto / SW Ontario",
      "postal_code": "M5K 1J5",
      "country": "CA",
      "phone": "4168651924x",
      "lat": 43.646989,
      "lng": -79.381283,
      "price": 2,
      "reserve_url": "http://www.opentable.com/single.aspx?rid=114148",
      "mobile_reserve_url": "http://mobile.opentable.com/opentable/?restId=114148",
      "image_url": "https://www.opentable.com/img/restimages/114148.jpg"
    },
    "114223": {
      "id": 114223,
      "name": "Capocaccia",
      "address": "1366 Yonge St.",
      "city": "Toronto",
      "state": "ON",
      "area": "Toronto / SW Ontario",
      "postal_code": "M4T 3A7",
      "country": "CA",
      "phone": "4169213141x",
      "lat": 43.686017,
      "lng": -79.393452,
      "price": 2,
      "reserve_url": "http://www.opentable.com/single.aspx?rid=114223",
      "mobile_reserve_url": "http://mobile.opentable.com/opentable/?restId=114223",
      "image_url": "https://www.opentable.com/img/restimages/114223.jpg"
    },
    "114952": {
      "id": 114952,
      "name": "Magic Oven On Keele",
      "address": "347 Keele St",
      "city": "Toronto",
      "state": "ON",
      "area": "Toronto / SW Ontario",
      "postal_code": "M6P 2K6",
      "country": "CA",
      "phone": "4166040202x",
      "lat": 43.664748,
      "lng": -79.463948,
      "price": 2,
      "reserve_url": "http://www.opentable.com/single.aspx?rid=114952",
      "mobile_reserve_url": "http://mobile.opentable.com/opentable/?restId=114952",
      "image_url": "https://www.opentable.com/img/restimages/114952.jpg"
    },
    "115024": {
      "id": 115024,
      "name": "The Tea Room - Windsor Arms Hotel",
      "address": "18 St. Thomas St",
      "city": "Toronto",
      "state": "ON",
      "area": "Toronto / SW Ontario",
      "postal_code": "M5S 3E7",
      "country": "CA",
      "phone": "4169719666",
      "lat": 43.668808,
      "lng": -79.390552,
      "price": 3,
      "reserve_url": "http://www.opentable.com/single.aspx?rid=115024",
      "mobile_reserve_url": "http://mobile.opentable.com/opentable/?restId=115024",
      "image_url": "https://www.opentable.com/img/restimages/115024.jpg"
    },
    "115093": {
      "id": 115093,
      "name": "FARMHOUSE Tavern",
      "address": "1627 Dupont Street",
      "city": "Toronto",
      "state": "ON",
      "area": "Toronto / SW Ontario",
      "postal_code": "M6P 3S8",
      "country": "CA",
      "phone": "4165619114x",
      "lat": 43.664841,
      "lng": -79.455399,
      "price": 2,
      "reserve_url": "http://www.opentable.com/single.aspx?rid=115093",
      "mobile_reserve_url": "http://mobile.opentable.com/opentable/?restId=115093",
      "image_url": "https://www.opentable.com/img/restimages/115093.jpg"
    },
    "115216": {
      "id": 115216,
      "name": "Destingo",
      "address": "741 Queen St. West",
      "city": "Toronto",
      "state": "ON",
      "area": "Toronto / SW Ontario",
      "postal_code": "M6J 1G1",
      "country": "CA",
      "phone": "6477483113",
      "lat": 43.646572,
      "lng": -79.407024,
      "price": 2,
      "reserve_url": "http://www.opentable.com/single.aspx?rid=115216",
      "mobile_reserve_url": "http://mobile.opentable.com/opentable/?restId=115216",
      "image_url": "https://www.opentable.com/img/restimages/115216.jpg"
    },
    "115315": {
      "id": 115315,
      "name": "Playa Cabana Cantina",
      "address": "2883 Dundas St. West",
      "city": "Toronto",
      "state": "ON",
      "area": "Toronto / SW Ontario",
      "postal_code": "M6P 1Y9",
      "country": "CA",
      "phone": "6473527767x",
      "lat": 43.665303,
      "lng": -79.465504,
      "price": 2,
      "reserve_url": "http://www.opentable.com/single.aspx?rid=115315",
      "mobile_reserve_url": "http://mobile.opentable.com/opentable/?restId=115315",
      "image_url": "https://www.opentable.com/img/restimages/115315.jpg"
    },
    "115318": {
      "id": 115318,
      "name": "Playa Cabana Hacienda",
      "address": "14 Dupont St",
      "city": "Toronto",
      "state": "ON",
      "area": "Toronto / SW Ontario",
      "postal_code": "M5R 1V4",
      "country": "CA",
      "phone": "6473526030x",
      "lat": 43.677068,
      "lng": -79.398184,
      "price": 2,
      "reserve_url": "http://www.opentable.com/single.aspx?rid=115318",
      "mobile_reserve_url": "http://mobile.opentable.com/opentable/?restId=115318",
      "image_url": "https://www.opentable.com/img/restimages/115318.jpg"
    },
    "115321": {
      "id": 115321,
      "name": "Playa Cabana",
      "address": "111 Dupont St",
      "city": "Toronto",
      "state": "ON",
      "area": "Toronto / SW Ontario",
      "postal_code": "M5R 1V4",
      "country": "CA",
      "phone": "4169293911",
      "lat": 43.676026,
      "lng": -79.401205,
      "price": 2,
      "reserve_url": "http://www.opentable.com/single.aspx?rid=115321",
      "mobile_reserve_url": "http://mobile.opentable.com/opentable/?restId=115321",
      "image_url": "https://www.opentable.com/img/restimages/115321.jpg"
    },
    "115324": {
      "id": 115324,
      "name": "The Living Room & Courtyard Cafe- The Windsor Arms Hotel",
      "address": "18 Saint Thomas St",
      "city": "Toronto",
      "state": "ON",
      "area": "Toronto / SW Ontario",
      "postal_code": "M5S 3E7",
      "country": "CA",
      "phone": "4169719666x",
      "lat": 43.668808,
      "lng": -79.390552,
      "price": 3,
      "reserve_url": "http://www.opentable.com/single.aspx?rid=115324",
      "mobile_reserve_url": "http://mobile.opentable.com/opentable/?restId=115324",
      "image_url": "https://www.opentable.com/img/restimages/115324.jpg"
    },
    "115669": {
      "id": 115669,
      "name": "Cafe Bar Pasta Inc.",
      "address": "1588 Dundas St W",
      "city": "Toronto",
      "state": "ON",
      "area": "Toronto / SW Ontario",
      "postal_code": "M6K 1T8",
      "country": "CA",
      "phone": "4165344794",
      "lat": 43.649959,
      "lng": -79.434732,
      "price": 2,
      "reserve_url": "http://www.opentable.com/single.aspx?rid=115669",
      "mobile_reserve_url": "http://mobile.opentable.com/opentable/?restId=115669",
      "image_url": "https://www.opentable.com/img/restimages/115669.jpg"
    },
    "115828": {
      "id": 115828,
      "name": "Geraldine",
      "address": "1564 Queen St. West",
      "city": "Toronto",
      "state": "ON",
      "area": "Toronto / SW Ontario",
      "postal_code": "M6R 1A6",
      "country": "CA",
      "phone": "6473528815x",
      "lat": 43.639962,
      "lng": -79.440355,
      "price": 3,
      "reserve_url": "http://www.opentable.com/single.aspx?rid=115828",
      "mobile_reserve_url": "http://mobile.opentable.com/opentable/?restId=115828",
      "image_url": "https://www.opentable.com/img/restimages/115828.jpg"
    },
    "115840": {
      "id": 115840,
      "name": "The Libertine",
      "address": "1307 Dundas St. West",
      "city": "Toronto",
      "state": "ON",
      "area": "Toronto / SW Ontario",
      "postal_code": "M6J 1X8",
      "country": "CA",
      "phone": "6477488288",
      "lat": 43.649457,
      "lng": -79.425947,
      "price": 2,
      "reserve_url": "http://www.opentable.com/single.aspx?rid=115840",
      "mobile_reserve_url": "http://mobile.opentable.com/opentable/?restId=115840",
      "image_url": "https://www.opentable.com/img/restimages/115840.jpg"
    },
    "115894": {
      "id": 115894,
      "name": "Magic Oven - Queen East",
      "address": "360 Queen St. East",
      "city": "Toronto",
      "state": "ON",
      "area": "Toronto / SW Ontario",
      "postal_code": "M5A 1T1",
      "country": "CA",
      "phone": "4167033555",
      "lat": 43.655828,
      "lng": -79.363928,
      "price": 2,
      "reserve_url": "http://www.opentable.com/single.aspx?rid=115894",
      "mobile_reserve_url": "http://mobile.opentable.com/opentable/?restId=115894",
      "image_url": "https://www.opentable.com/img/restimages/115894.jpg"
    },
    "115897": {
      "id": 115897,
      "name": "Magic Oven - Danforth",
      "address": "798 Danforth Ave",
      "city": "Toronto",
      "state": "ON",
      "area": "Toronto / SW Ontario",
      "postal_code": "M4J 1L6",
      "country": "CA",
      "phone": "4164620333",
      "lat": 43.679821,
      "lng": -79.341232,
      "price": 2,
      "reserve_url": "http://www.opentable.com/single.aspx?rid=115897",
      "mobile_reserve_url": "http://mobile.opentable.com/opentable/?restId=115897",
      "image_url": "https://www.opentable.com/img/restimages/115897.jpg"
    },
    "115900": {
      "id": 115900,
      "name": "Magic Oven - Dupont",
      "address": "270 Dupont street",
      "city": "Toronto",
      "state": "ON",
      "area": "Toronto / SW Ontario",
      "postal_code": "M5R 1V7",
      "country": "CA",
      "phone": "4169281555",
      "lat": 43.67503,
      "lng": -79.406881,
      "price": 2,
      "reserve_url": "http://www.opentable.com/single.aspx?rid=115900",
      "mobile_reserve_url": "http://mobile.opentable.com/opentable/?restId=115900",
      "image_url": "https://www.opentable.com/img/restimages/115900.jpg"
    },
    "115951": {
      "id": 115951,
      "name": "Magic Oven - Wellesley",
      "address": "6 Wellesley St.",
      "city": "Toronto",
      "state": "ON",
      "area": "Toronto / SW Ontario",
      "postal_code": "M4Y 1E7",
      "country": "CA",
      "phone": "4169297888",
      "lat": 43.664948,
      "lng": -79.385066,
      "price": 2,
      "reserve_url": "http://www.opentable.com/single.aspx?rid=115951",
      "mobile_reserve_url": "http://mobile.opentable.com/opentable/?restId=115951",
      "image_url": "https://www.opentable.com/img/restimages/115951.jpg"
    },
    "116728": {
      "id": 116728,
      "name": "Hemispheres Restaurant & Bistro",
      "address": "108 Chestnut St.",
      "city": "Toronto",
      "state": "ON",
      "area": "Toronto / SW Ontario",
      "postal_code": "M5G 1R3",
      "country": "CA",
      "phone": "4165998000x",
      "lat": 43.654615,
      "lng": -79.385945,
      "price": 3,
      "reserve_url": "http://www.opentable.com/single.aspx?rid=116728",
      "mobile_reserve_url": "http://mobile.opentable.com/opentable/?restId=116728",
      "image_url": "https://www.opentable.com/img/restimages/116728.jpg"
    },
    "116899": {
      "id": 116899,
      "name": "The Fifth Pubhouse",
      "address": "225 Richmond Street West",
      "city": "Toronto",
      "state": "ON",
      "area": "Toronto / SW Ontario",
      "postal_code": "M5V 1W2",
      "country": "CA",
      "phone": "4169790390",
      "lat": 43.649241,
      "lng": -79.389508,
      "price": 2,
      "reserve_url": "http://www.opentable.com/single.aspx?rid=116899",
      "mobile_reserve_url": "http://mobile.opentable.com/opentable/?restId=116899",
      "image_url": "https://www.opentable.com/img/restimages/116899.jpg"
    },
    "117391": {
      "id": 117391,
      "name": "Baldini",
      "address": "1012 Queen St E",
      "city": "Toronto",
      "state": "ON",
      "area": "Toronto / SW Ontario",
      "postal_code": "M4M 1K1",
      "country": "CA",
      "phone": "4168491233x",
      "lat": 43.661368,
      "lng": -79.339039,
      "price": 2,
      "reserve_url": "http://www.opentable.com/single.aspx?rid=117391",
      "mobile_reserve_url": "http://mobile.opentable.com/opentable/?restId=117391",
      "image_url": "https://www.opentable.com/img/restimages/117391.jpg"
    },
    "117469": {
      "id": 117469,
      "name": "Copacabana Brazilian Steak House - Downtown",
      "address": "230 Adelaide St. West",
      "city": "Toronto",
      "state": "ON",
      "area": "Toronto / SW Ontario",
      "postal_code": "M5H 1W7",
      "country": "CA",
      "phone": "6477483211x",
      "lat": 43.648327,
      "lng": -79.388078,
      "price": 3,
      "reserve_url": "http://www.opentable.com/single.aspx?rid=117469",
      "mobile_reserve_url": "http://mobile.opentable.com/opentable/?restId=117469",
      "image_url": "https://www.opentable.com/img/restimages/117469.jpg"
    },
    "117589": {
      "id": 117589,
      "name": "Mazz Bistro",
      "address": "806 Queen St. E",
      "city": "Toronto",
      "state": "ON",
      "area": "Toronto / SW Ontario",
      "postal_code": "M4M 1H7",
      "country": "CA",
      "phone": "6473478744",
      "lat": 43.659722,
      "lng": -79.346525,
      "price": 2,
      "reserve_url": "http://www.opentable.com/single.aspx?rid=117589",
      "mobile_reserve_url": "http://mobile.opentable.com/opentable/?restId=117589",
      "image_url": "https://www.opentable.com/img/restimages/117589.jpg"
    },
    "117802": {
      "id": 117802,
      "name": "The Passenger",
      "address": "2968 Dundas St West",
      "city": "Toronto",
      "state": "ON",
      "area": "Toronto / SW Ontario",
      "postal_code": "M6P 1Z2",
      "country": "CA",
      "phone": "4167620777",
      "lat": 43.665541,
      "lng": -79.46831,
      "price": 2,
      "reserve_url": "http://www.opentable.com/single.aspx?rid=117802",
      "mobile_reserve_url": "http://mobile.opentable.com/opentable/?restId=117802",
      "image_url": "https://www.opentable.com/img/restimages/117802.jpg"
    },
    "117925": {
      "id": 117925,
      "name": "La Croisee",
      "address": "1620 Bayview Ave",
      "city": "Toronto",
      "state": "ON",
      "area": "Toronto / SW Ontario",
      "postal_code": "M4G 3B7",
      "country": "CA",
      "phone": "4169012388x",
      "lat": 43.70642,
      "lng": -79.375604,
      "price": 2,
      "reserve_url": "http://www.opentable.com/single.aspx?rid=117925",
      "mobile_reserve_url": "http://mobile.opentable.com/opentable/?restId=117925",
      "image_url": "https://www.opentable.com/img/restimages/117925.jpg"
    },
    "118045": {
      "id": 118045,
      "name": "The Beverley Hotel Toronto",
      "address": "335 Queen Street West",
      "city": "Toronto",
      "state": "ON",
      "area": "Toronto / SW Ontario",
      "postal_code": "M5V 2A1",
      "country": "CA",
      "phone": "4164932786x",
      "lat": 43.649418,
      "lng": -79.391956,
      "price": 3,
      "reserve_url": "http://www.opentable.com/single.aspx?rid=118045",
      "mobile_reserve_url": "http://mobile.opentable.com/opentable/?restId=118045",
      "image_url": "https://www.opentable.com/img/restimages/118045.jpg"
    },
    "118051": {
      "id": 118051,
      "name": "Outrigger",
      "address": "2232 Queen Street East",
      "city": "Toronto",
      "state": "ON",
      "area": "Toronto / SW Ontario",
      "postal_code": "M4E 1E7",
      "country": "CA",
      "phone": "6477482232",
      "lat": 43.672645,
      "lng": -79.287638,
      "price": 2,
      "reserve_url": "http://www.opentable.com/single.aspx?rid=118051",
      "mobile_reserve_url": "http://mobile.opentable.com/opentable/?restId=118051",
      "image_url": "https://www.opentable.com/img/restimages/118051.jpg"
    },
    "118405": {
      "id": 118405,
      "name": "PLAYA CABANA BARRIO",
      "address": "642 Bloor West",
      "city": "Toronto",
      "state": "ON",
      "area": "Toronto / SW Ontario",
      "postal_code": "M6G 1K9",
      "country": "CA",
      "phone": "4169015188",
      "lat": 43.664318,
      "lng": -79.415008,
      "price": 2,
      "reserve_url": "http://www.opentable.com/single.aspx?rid=118405",
      "mobile_reserve_url": "http://mobile.opentable.com/opentable/?restId=118405",
      "image_url": "https://www.opentable.com/img/restimages/118405.jpg"
    },
    "118642": {
      "id": 118642,
      "name": "Lo Zingaro",
      "address": "571 Queen St W",
      "city": "Toronto",
      "state": "ON",
      "area": "Toronto / SW Ontario",
      "postal_code": "M5V2B6",
      "country": "CA",
      "phone": "4163616154x",
      "lat": 43.647733,
      "lng": -79.400999,
      "price": 2,
      "reserve_url": "http://www.opentable.com/single.aspx?rid=118642",
      "mobile_reserve_url": "http://mobile.opentable.com/opentable/?restId=118642",
      "image_url": "https://www.opentable.com/img/restimages/118642.jpg"
    },
    "118675": {
      "id": 118675,
      "name": "Lisa Marie",
      "address": "638 Queen Street West",
      "city": "Toronto",
      "state": "ON",
      "area": "Toronto / SW Ontario",
      "postal_code": "M6J 1E3",
      "country": "CA",
      "phone": "6477486822x",
      "lat": 43.646076,
      "lng": -79.409564,
      "price": 2,
      "reserve_url": "http://www.opentable.com/single.aspx?rid=118675",
      "mobile_reserve_url": "http://mobile.opentable.com/opentable/?restId=118675",
      "image_url": "https://www.opentable.com/img/restimages/118675.jpg"
    },
    "124663": {
      "id": 124663,
      "name": "Moxie's Grill & Bar- University",
      "address": "70 University Avenue",
      "city": "Toronto",
      "state": "ON",
      "area": "Toronto / SW Ontario",
      "postal_code": "MJ5 2M4",
      "country": "CA",
      "phone": "6477487172",
      "lat": 43.64661,
      "lng": -79.384747,
      "price": 2,
      "reserve_url": "http://www.opentable.com/single.aspx?rid=124663",
      "mobile_reserve_url": "http://mobile.opentable.com/opentable/?restId=124663",
      "image_url": "https://www.opentable.com/img/restimages/124663.jpg"
    },
    "135190": {
      "id": 135190,
      "name": "Windup Bird Cafe",
      "address": "382 College Street",
      "city": "Toronto",
      "state": "ON",
      "area": "Toronto / SW Ontario",
      "postal_code": "M5T 1S7",
      "country": "CA",
      "phone": "6473496373x",
      "lat": 43.657091,
      "lng": -79.40536,
      "price": 2,
      "reserve_url": "http://www.opentable.com/single.aspx?rid=135190",
      "mobile_reserve_url": "http://mobile.opentable.com/opentable/?restId=135190",
      "image_url": "https://www.opentable.com/img/restimages/135190.jpg"
    },
    "135973": {
      "id": 135973,
      "name": "The Kensington Cornerstone Restaurant",
      "address": "2A Kensington Avenue",
      "city": "Toronto",
      "state": "ON",
      "area": "Toronto / SW Ontario",
      "postal_code": "M5T 2J7",
      "country": "CA",
      "phone": "6473431597x",
      "lat": 43.652544,
      "lng": -79.399869,
      "price": 2,
      "reserve_url": "http://www.opentable.com/single.aspx?rid=135973",
      "mobile_reserve_url": "http://mobile.opentable.com/opentable/?restId=135973",
      "image_url": "https://www.opentable.com/img/restimages/135973.jpg"
    },
    "136021": {
      "id": 136021,
      "name": "The Forth",
      "address": "629 Danforth Ave",
      "city": "Toronto",
      "state": "ON",
      "area": "Toronto / SW Ontario",
      "postal_code": "M4K 1R2",
      "country": "CA",
      "phone": "416-465-2629x",
      "lat": 43.678689,
      "lng": -79.345455,
      "price": 3,
      "reserve_url": "http://www.opentable.com/single.aspx?rid=136021",
      "mobile_reserve_url": "http://mobile.opentable.com/opentable/?restId=136021",
      "image_url": "https://www.opentable.com/img/restimages/136021.jpg"
    },
    "136183": {
      "id": 136183,
      "name": "Yours Truly",
      "address": "229 Ossington Avenue",
      "city": "Toronto",
      "state": "ON",
      "area": "Toronto / SW Ontario",
      "postal_code": "M6J 2Z8",
      "country": "CA",
      "phone": "4165332243x",
      "lat": 43.649136,
      "lng": -79.420694,
      "price": 3,
      "reserve_url": "http://www.opentable.com/single.aspx?rid=136183",
      "mobile_reserve_url": "http://mobile.opentable.com/opentable/?restId=136183",
      "image_url": "https://www.opentable.com/img/restimages/136183.jpg"
    },
    "138943": {
      "id": 138943,
      "name": "Barsa Taberna",
      "address": "26 Market Street",
      "city": "Toronto",
      "state": "ON",
      "area": "Toronto / SW Ontario",
      "postal_code": "M5E1A9",
      "country": "CA",
      "phone": "6473413642",
      "lat": 43.64901,
      "lng": -79.372132,
      "price": 3,
      "reserve_url": "http://www.opentable.com/single.aspx?rid=138943",
      "mobile_reserve_url": "http://mobile.opentable.com/opentable/?restId=138943",
      "image_url": "https://www.opentable.com/img/restimages/138943.jpg"
    },
    "139357": {
      "id": 139357,
      "name": "Opus Restaurant",
      "address": "37 Prince Arthur Ave.",
      "city": "Toronto",
      "state": "ON",
      "area": "Toronto / SW Ontario",
      "postal_code": "M5R 1B2",
      "country": "CA",
      "phone": "4169213105",
      "lat": 43.669239,
      "lng": -79.397204,
      "price": 4,
      "reserve_url": "http://www.opentable.com/single.aspx?rid=139357",
      "mobile_reserve_url": "http://mobile.opentable.com/opentable/?restId=139357",
      "image_url": "https://www.opentable.com/img/restimages/139357.jpg"
    },
    "139600": {
      "id": 139600,
      "name": "Cluny",
      "address": "35 Tank House Lane",
      "city": "Toronto",
      "state": "ON",
      "area": "Toronto / SW Ontario",
      "postal_code": "M5A 3C4",
      "country": "CA",
      "phone": "4162032632x",
      "lat": 43.650635,
      "lng": -79.357971,
      "price": 2,
      "reserve_url": "http://www.opentable.com/single.aspx?rid=139600",
      "mobile_reserve_url": "http://mobile.opentable.com/opentable/?restId=139600",
      "image_url": "https://www.opentable.com/img/restimages/139600.jpg"
    },
    "139672": {
      "id": 139672,
      "name": "The Real Jerk Restaurant",
      "address": "842 Gerrard St E",
      "city": "Toronto",
      "state": "ON",
      "area": "Toronto / SW Ontario",
      "postal_code": "M4M 1Y7",
      "country": "CA",
      "phone": "4164636055",
      "lat": 43.667641,
      "lng": -79.343186,
      "price": 2,
      "reserve_url": "http://www.opentable.com/single.aspx?rid=139672",
      "mobile_reserve_url": "http://mobile.opentable.com/opentable/?restId=139672",
      "image_url": "https://www.opentable.com/img/restimages/139672.jpg"
    },
    "139684": {
      "id": 139684,
      "name": "THR & Co.",
      "address": "97 Harbord Street",
      "city": "Toronto",
      "state": "ON",
      "area": "Toronto / SW Ontario",
      "postal_code": "M5S 1G6",
      "country": "CA",
      "phone": "6477487199",
      "lat": 43.662635,
      "lng": -79.403671,
      "price": 3,
      "reserve_url": "http://www.opentable.com/single.aspx?rid=139684",
      "mobile_reserve_url": "http://mobile.opentable.com/opentable/?restId=139684",
      "image_url": "https://www.opentable.com/img/restimages/139684.jpg"
    },
    "139984": {
      "id": 139984,
      "name": "Campagnolo - Toronto",
      "address": "832 Dundas Street West",
      "city": "Toronto",
      "state": "ON",
      "area": "Toronto / SW Ontario",
      "postal_code": "M6J 1V3",
      "country": "CA",
      "phone": "4163644785",
      "lat": 43.651692,
      "lng": -79.409497,
      "price": 3,
      "reserve_url": "http://www.opentable.com/single.aspx?rid=139984",
      "mobile_reserve_url": "http://mobile.opentable.com/opentable/?restId=139984",
      "image_url": "https://www.opentable.com/img/restimages/139984.jpg"
    },
    "140578": {
      "id": 140578,
      "name": "Shibui Robata Bar",
      "address": "230 Adelaide St. West",
      "city": "Toronto",
      "state": "ON",
      "area": "Toronto / SW Ontario",
      "postal_code": "M5H 1W7",
      "country": "CA",
      "phone": "6477483211x",
      "lat": 43.648327,
      "lng": -79.388078,
      "price": 3,
      "reserve_url": "http://www.opentable.com/single.aspx?rid=140578",
      "mobile_reserve_url": "http://mobile.opentable.com/opentable/?restId=140578",
      "image_url": "https://www.opentable.com/img/restimages/140578.jpg"
    },
    "140620": {
      "id": 140620,
      "name": "Colette Grand Caf√© and Bakery",
      "address": "550 Wellington Street W.",
      "city": "Toronto",
      "state": "ON",
      "area": "Toronto / SW Ontario",
      "postal_code": "M5V 2V4",
      "country": "CA",
      "phone": "6473487000",
      "lat": 43.642845,
      "lng": -79.401671,
      "price": 3,
      "reserve_url": "http://www.opentable.com/single.aspx?rid=140620",
      "mobile_reserve_url": "http://mobile.opentable.com/opentable/?restId=140620",
      "image_url": "https://www.opentable.com/img/restimages/140620.jpg"
    },
    "141103": {
      "id": 141103,
      "name": "Posticino Ristorante",
      "address": "755 The Queensway",
      "city": "Toronto",
      "state": "ON",
      "area": "Toronto / SW Ontario",
      "postal_code": "M8Z 1M8",
      "country": "CA",
      "phone": "4162539207x",
      "lat": 43.62598,
      "lng": -79.503623,
      "price": 2,
      "reserve_url": "http://www.opentable.com/single.aspx?rid=141103",
      "mobile_reserve_url": "http://mobile.opentable.com/opentable/?restId=141103",
      "image_url": "https://www.opentable.com/img/restimages/141103.jpg"
    },
    "141250": {
      "id": 141250,
      "name": "Toronto Airport Marriott-Bistro West by East",
      "address": "901 Dixon Road",
      "city": "Toronto",
      "state": "ON",
      "area": "Toronto / SW Ontario",
      "postal_code": "M9W 1J5",
      "country": "CA",
      "phone": "4166748868",
      "lat": 43.685845,
      "lng": -79.593574,
      "price": 2,
      "reserve_url": "http://www.opentable.com/single.aspx?rid=141250",
      "mobile_reserve_url": "http://mobile.opentable.com/opentable/?restId=141250",
      "image_url": "https://www.opentable.com/img/restimages/141250.jpg"
    },
    "144319": {
      "id": 144319,
      "name": "Osgoode Hall Restaurant",
      "address": "130 Queen St. West",
      "city": "Toronto",
      "state": "ON",
      "area": "Toronto / SW Ontario",
      "postal_code": "M5H 2N6",
      "country": "CA",
      "phone": "4169473361",
      "lat": 43.651145,
      "lng": -79.385221,
      "price": 2,
      "reserve_url": "http://www.opentable.com/single.aspx?rid=144319",
      "mobile_reserve_url": "http://mobile.opentable.com/opentable/?restId=144319",
      "image_url": "https://www.opentable.com/img/restimages/144319.jpg"
    },
    "144976": {
      "id": 144976,
      "name": "T Bar",
      "address": "33 Gerrard Street West",
      "city": "Toronto",
      "state": "ON",
      "area": "Toronto / SW Ontario",
      "postal_code": "M5G 1Z4",
      "country": "CA",
      "phone": "416 585 4961x",
      "lat": 43.658715,
      "lng": -79.383085,
      "price": 2,
      "reserve_url": "http://www.opentable.com/single.aspx?rid=144976",
      "mobile_reserve_url": "http://mobile.opentable.com/opentable/?restId=144976",
      "image_url": "https://www.opentable.com/img/restimages/144976.jpg"
    },
    "145657": {
      "id": 145657,
      "name": "DaiLo",
      "address": "503 College St",
      "city": "Toronto",
      "state": "ON",
      "area": "Toronto / SW Ontario",
      "postal_code": "M6G 1A5",
      "country": "CA",
      "phone": "6473418882x",
      "lat": 43.656006,
      "lng": -79.409956,
      "price": 3,
      "reserve_url": "http://www.opentable.com/single.aspx?rid=145657",
      "mobile_reserve_url": "http://mobile.opentable.com/opentable/?restId=145657",
      "image_url": "https://www.opentable.com/img/restimages/145657.jpg"
    },
    "145777": {
      "id": 145777,
      "name": "The Lobby Lounge at the Shangri-La Toronto",
      "address": "188 University Ave",
      "city": "Toronto",
      "state": "ON",
      "area": "Toronto / SW Ontario",
      "postal_code": "M5H 0A3",
      "country": "CA",
      "phone": "6477888294x",
      "lat": 43.649285,
      "lng": -79.385855,
      "price": 3,
      "reserve_url": "http://www.opentable.com/single.aspx?rid=145777",
      "mobile_reserve_url": "http://mobile.opentable.com/opentable/?restId=145777",
      "image_url": "https://www.opentable.com/img/restimages/145777.jpg"
    },
    "145912": {
      "id": 145912,
      "name": "The Good Son Restaurant",
      "address": "1096 Queen Street W",
      "city": "Toronto",
      "state": "ON",
      "area": "Toronto / SW Ontario",
      "postal_code": "M6J 1H9",
      "country": "CA",
      "phone": "4165510589x",
      "lat": 43.643447,
      "lng": -79.422664,
      "price": 2,
      "reserve_url": "http://www.opentable.com/single.aspx?rid=145912",
      "mobile_reserve_url": "http://mobile.opentable.com/opentable/?restId=145912",
      "image_url": "https://www.opentable.com/img/restimages/145912.jpg"
    },
    "146158": {
      "id": 146158,
      "name": "Signs Restaurant",
      "address": "558 Yonge Street",
      "city": "Toronto",
      "state": "ON",
      "area": "Toronto / SW Ontario",
      "postal_code": "M4Y 1Z1",
      "country": "CA",
      "phone": "6473497446x",
      "lat": 43.664635,
      "lng": -79.384589,
      "price": 2,
      "reserve_url": "http://www.opentable.com/single.aspx?rid=146158",
      "mobile_reserve_url": "http://mobile.opentable.com/opentable/?restId=146158",
      "image_url": "https://www.opentable.com/img/restimages/146158.jpg"
    },
    "146164": {
      "id": 146164,
      "name": "East Thirty-Six",
      "address": "36 Wellington St E",
      "city": "Toronto",
      "state": "ON",
      "area": "Toronto / SW Ontario",
      "postal_code": "M5E 1C7",
      "country": "CA",
      "phone": "6473503636x",
      "lat": 43.648452,
      "lng": -79.37507,
      "price": 2,
      "reserve_url": "http://www.opentable.com/single.aspx?rid=146164",
      "mobile_reserve_url": "http://mobile.opentable.com/opentable/?restId=146164",
      "image_url": "https://www.opentable.com/img/restimages/146164.jpg"
    },
    "147460": {
      "id": 147460,
      "name": "Sorrel Rosedale",
      "address": "1158 Yonge St",
      "city": "Toronto",
      "state": "ON",
      "area": "Toronto / SW Ontario",
      "postal_code": "M4W 2L9",
      "country": "CA",
      "phone": "4169261010",
      "lat": 43.680259,
      "lng": -79.391,
      "price": 2,
      "reserve_url": "http://www.opentable.com/single.aspx?rid=147460",
      "mobile_reserve_url": "http://mobile.opentable.com/opentable/?restId=147460",
      "image_url": "https://www.opentable.com/img/restimages/147460.jpg"
    },
    "147760": {
      "id": 147760,
      "name": "Ovest Cucina e Vineria",
      "address": "788 King St W",
      "city": "Toronto",
      "state": "ON",
      "area": "Toronto / SW Ontario",
      "postal_code": "M5V 1N6",
      "country": "CA",
      "phone": "4162146161x",
      "lat": 43.64317,
      "lng": -79.406625,
      "price": 3,
      "reserve_url": "http://www.opentable.com/single.aspx?rid=147760",
      "mobile_reserve_url": "http://mobile.opentable.com/opentable/?restId=147760",
      "image_url": "https://www.opentable.com/img/restimages/147760.jpg"
    },
    "147862": {
      "id": 147862,
      "name": "Montage Rooftop",
      "address": "115 Yorkville Ave",
      "city": "Toronto",
      "state": "ON",
      "area": "Toronto / SW Ontario",
      "postal_code": "M5R 1C1",
      "country": "CA",
      "phone": "4169689429",
      "lat": 43.670775,
      "lng": -79.392844,
      "price": 3,
      "reserve_url": "http://www.opentable.com/single.aspx?rid=147862",
      "mobile_reserve_url": "http://mobile.opentable.com/opentable/?restId=147862",
      "image_url": "https://www.opentable.com/img/restimages/147862.jpg"
    },
    "147889": {
      "id": 147889,
      "name": "Left Bank Grill & WIne Bar",
      "address": "2015 Avenue Road",
      "city": "Toronto",
      "state": "ON",
      "area": "Toronto / SW Ontario",
      "postal_code": "M5M 4A4",
      "country": "CA",
      "phone": "6473495700x",
      "lat": 43.735467,
      "lng": -79.419778,
      "price": 3,
      "reserve_url": "http://www.opentable.com/single.aspx?rid=147889",
      "mobile_reserve_url": "http://mobile.opentable.com/opentable/?restId=147889",
      "image_url": "https://www.opentable.com/img/restimages/147889.jpg"
    },
    "147916": {
      "id": 147916,
      "name": "Fat Pasha",
      "address": "414 Dupont Street",
      "city": "Toronto",
      "state": "ON",
      "area": "Toronto / SW Ontario",
      "postal_code": "M5R 1V9",
      "country": "CA",
      "phone": "6473406142x",
      "lat": 43.673844,
      "lng": -79.411756,
      "price": 2,
      "reserve_url": "http://www.opentable.com/single.aspx?rid=147916",
      "mobile_reserve_url": "http://mobile.opentable.com/opentable/?restId=147916",
      "image_url": "https://www.opentable.com/img/restimages/147916.jpg"
    },
    "147925": {
      "id": 147925,
      "name": "Firkin on Harbour",
      "address": "10 Yonge St",
      "city": "Toronto",
      "state": "ON",
      "area": "Toronto / SW Ontario",
      "postal_code": "M5E 1R4",
      "country": "CA",
      "phone": "4165199949x",
      "lat": 43.64212,
      "lng": -79.375434,
      "price": 2,
      "reserve_url": "http://www.opentable.com/single.aspx?rid=147925",
      "mobile_reserve_url": "http://mobile.opentable.com/opentable/?restId=147925",
      "image_url": "https://www.opentable.com/img/restimages/147925.jpg"
    },
    "147967": {
      "id": 147967,
      "name": "Grand Electric Garden Parties",
      "address": "1330 Queen St West",
      "city": "Toronto",
      "state": "ON",
      "area": "Toronto / SW Ontario",
      "postal_code": "M6K 1L4",
      "country": "CA",
      "phone": "4166273459x",
      "lat": 43.641674,
      "lng": -79.431607,
      "price": 2,
      "reserve_url": "http://www.opentable.com/single.aspx?rid=147967",
      "mobile_reserve_url": "http://mobile.opentable.com/opentable/?restId=147967",
      "image_url": "https://www.opentable.com/img/restimages/147967.jpg"
    },
    "148870": {
      "id": 148870,
      "name": "Montecito",
      "address": "299 Adelaide Street West",
      "city": "Toronto",
      "state": "ON",
      "area": "Toronto / SW Ontario",
      "postal_code": "M5V 1P7",
      "country": "CA",
      "phone": "4165990299x",
      "lat": 43.647401,
      "lng": -79.390923,
      "price": 2,
      "reserve_url": "http://www.opentable.com/single.aspx?rid=148870",
      "mobile_reserve_url": "http://mobile.opentable.com/opentable/?restId=148870",
      "image_url": "https://www.opentable.com/img/restimages/148870.jpg"
    },
    "149146": {
      "id": 149146,
      "name": "Yunaghi",
      "address": "538 Manning Ave",
      "city": "Toronto",
      "state": "ON",
      "area": "Toronto / SW Ontario",
      "postal_code": "M6G 2V9",
      "country": "CA",
      "phone": "4165887862x",
      "lat": 43.660632,
      "lng": -79.414723,
      "price": 4,
      "reserve_url": "http://www.opentable.com/single.aspx?rid=149146",
      "mobile_reserve_url": "http://mobile.opentable.com/opentable/?restId=149146",
      "image_url": "https://www.opentable.com/img/restimages/149146.jpg"
    },
    "149605": {
      "id": 149605,
      "name": "White Elephant Restaurant and Bar",
      "address": "366 Queen St E.",
      "city": "Toronto",
      "state": "ON",
      "area": "Toronto / SW Ontario",
      "postal_code": "M5A 1T1",
      "country": "CA",
      "phone": "4163649999x",
      "lat": 43.655868,
      "lng": -79.363692,
      "price": 2,
      "reserve_url": "http://www.opentable.com/single.aspx?rid=149605",
      "mobile_reserve_url": "http://mobile.opentable.com/opentable/?restId=149605",
      "image_url": "https://www.opentable.com/img/restimages/149605.jpg"
    },
    "149653": {
      "id": 149653,
      "name": "Church Bistro",
      "address": "555 Church St",
      "city": "Toronto",
      "state": "ON",
      "area": "Toronto / SW Ontario",
      "postal_code": "M4Y 2E2",
      "country": "CA",
      "phone": "6477485505",
      "lat": 43.667095,
      "lng": -79.381312,
      "price": 2,
      "reserve_url": "http://www.opentable.com/single.aspx?rid=149653",
      "mobile_reserve_url": "http://mobile.opentable.com/opentable/?restId=149653",
      "image_url": "https://www.opentable.com/img/restimages/149653.jpg"
    },
    "149665": {
      "id": 149665,
      "name": "Carisma",
      "address": "73 King St. East",
      "city": "Toronto",
      "state": "ON",
      "area": "Toronto / SW Ontario",
      "postal_code": "M5C 1G3",
      "country": "CA",
      "phone": "4168647373",
      "lat": 43.649581,
      "lng": -79.37535,
      "price": 3,
      "reserve_url": "http://www.opentable.com/single.aspx?rid=149665",
      "mobile_reserve_url": "http://mobile.opentable.com/opentable/?restId=149665",
      "image_url": "https://www.opentable.com/img/restimages/149665.jpg"
    },
    "150640": {
      "id": 150640,
      "name": "Diwan",
      "address": "77 Wynford Dr.",
      "city": "Toronto",
      "state": "ON",
      "area": "Toronto / SW Ontario",
      "postal_code": "M3C 1K1",
      "country": "CA",
      "phone": "4166464677x",
      "lat": 43.725928,
      "lng": -79.333038,
      "price": 2,
      "reserve_url": "http://www.opentable.com/single.aspx?rid=150640",
      "mobile_reserve_url": "http://mobile.opentable.com/opentable/?restId=150640",
      "image_url": "https://www.opentable.com/img/restimages/150640.jpg"
    },
    "150661": {
      "id": 150661,
      "name": "Momofuku DAISH≈å - Toronto",
      "address": "190 University Ave",
      "city": "Toronto",
      "state": "ON",
      "area": "Toronto / SW Ontario",
      "postal_code": "M5H 0A3",
      "country": "CA",
      "phone": "6472538000",
      "lat": 43.649368,
      "lng": -79.385921,
      "price": 4,
      "reserve_url": "http://www.opentable.com/single.aspx?rid=150661",
      "mobile_reserve_url": "http://mobile.opentable.com/opentable/?restId=150661",
      "image_url": "https://www.opentable.com/img/restimages/150661.jpg"
    },
    "151075": {
      "id": 151075,
      "name": "Chacho's",
      "address": "234 Merton St",
      "city": "Toronto",
      "state": "ON",
      "area": "Toronto / SW Ontario",
      "postal_code": "M4S 1A1",
      "country": "CA",
      "phone": "4169322434",
      "lat": 43.697536,
      "lng": -79.390611,
      "price": 2,
      "reserve_url": "http://www.opentable.com/single.aspx?rid=151075",
      "mobile_reserve_url": "http://mobile.opentable.com/opentable/?restId=151075",
      "image_url": "https://www.opentable.com/img/restimages/151075.jpg"
    },
    "151087": {
      "id": 151087,
      "name": "FARMER's Daughter Eatery",
      "address": "1588 DuPont St.",
      "city": "Toronto",
      "state": "ON",
      "area": "Toronto / SW Ontario",
      "postal_code": "M6P 3S6",
      "country": "CA",
      "phone": "4165460626x",
      "lat": 43.665269,
      "lng": -79.454047,
      "price": 2,
      "reserve_url": "http://www.opentable.com/single.aspx?rid=151087",
      "mobile_reserve_url": "http://mobile.opentable.com/opentable/?restId=151087",
      "image_url": "https://www.opentable.com/img/restimages/151087.jpg"
    },
    "151300": {
      "id": 151300,
      "name": "Palace Restaurant",
      "address": "722 Pape Ave",
      "city": "Toronto",
      "state": "ON",
      "area": "Toronto / SW Ontario",
      "postal_code": "M4K 3S7",
      "country": "CA",
      "phone": "4164621166x",
      "lat": 43.679822,
      "lng": -79.345335,
      "price": 2,
      "reserve_url": "http://www.opentable.com/single.aspx?rid=151300",
      "mobile_reserve_url": "http://mobile.opentable.com/opentable/?restId=151300",
      "image_url": "https://www.opentable.com/img/restimages/151300.jpg"
    },
    "151354": {
      "id": 151354,
      "name": "Williams Landing",
      "address": "120 Lynn Williams St",
      "city": "Toronto",
      "state": "ON",
      "area": "Toronto / SW Ontario",
      "postal_code": "M6K 3N6",
      "country": "CA",
      "phone": "6473408008x",
      "lat": 43.638662,
      "lng": -79.417157,
      "price": 2,
      "reserve_url": "http://www.opentable.com/single.aspx?rid=151354",
      "mobile_reserve_url": "http://mobile.opentable.com/opentable/?restId=151354",
      "image_url": "https://www.opentable.com/img/restimages/151354.jpg"
    },
    "152008": {
      "id": 152008,
      "name": "Karaikudi Chettinad South Indian Restaurant",
      "address": "1225 Kennedy Rd",
      "city": "Toronto",
      "state": "ON",
      "area": "Toronto / SW Ontario",
      "postal_code": "M1P4Y1",
      "country": "CA",
      "phone": "4167010003",
      "lat": 43.756123,
      "lng": -79.27608,
      "price": 2,
      "reserve_url": "http://www.opentable.com/single.aspx?rid=152008",
      "mobile_reserve_url": "http://mobile.opentable.com/opentable/?restId=152008",
      "image_url": "https://www.opentable.com/img/restimages/152008.jpg"
    },
    "152074": {
      "id": 152074,
      "name": "Cleo Restaurant",
      "address": "3471 Yonge St.",
      "city": "Toronto",
      "state": "ON",
      "area": "Toronto / SW Ontario",
      "postal_code": "M4N 2N3",
      "country": "CA",
      "phone": "4164400700x",
      "lat": 43.734267,
      "lng": -79.404371,
      "price": 2,
      "reserve_url": "http://www.opentable.com/single.aspx?rid=152074",
      "mobile_reserve_url": "http://mobile.opentable.com/opentable/?restId=152074",
      "image_url": "https://www.opentable.com/img/restimages/152074.jpg"
    }
  },
  "filter": ""
}
