{
  "total_entries": 25,
  "per_page": 25,
  "current_page": 1,
  "restaurants": [
    {
      "id": 21307,
      "name": "Scaramouche Restaurant",
      "address": "1 Benvenuto Place",
      "city": "Toronto",
      "state": "ON",
      "area": "Toronto / SW Ontario",
      "postal_code": "M4V 2L1",
      "country": "CA",
      "phone": "4169618011",
      "lat": 43.68207,
      "lng": -79.40041,
      "price": 4,
      "reserve_url": "http://www.opentable.com/single.aspx?rid=21307",
      "mobile_reserve_url": "http://mobile.opentable.com/opentable/?restId=21307",
      "image_url": "https://www.opentable.com/img/restimages/21307.jpg"
    },
    {
      "id": 82957,
      "name": "The Sultan's Tent",
      "address": "49 Front St E",
      "city": "Toronto",
      "state": "ON",
      "area": "Toronto / SW Ontario",
      "postal_code": "M5E 1B3",
      "country": "CA",
      "phone": "4169610601x",
      "lat": 43.648033,
      "lng": -79.374377,
      "price": 4,
      "reserve_url": "http://www.opentable.com/single.aspx?rid=82957",
      "mobile_reserve_url": "http://mobile.opentable.com/opentable/?restId=82957",
      "image_url": "https://www.opentable.com/img/restimages/82957.jpg"
    },
    {
      "id": 108505,
      "name": "Salt Wine Bar",
      "address": "225 Ossington Ave",
      "city": "Toronto",
      "state": "ON",
      "area": "Toronto / SW Ontario",
      "postal_code": "M6J 2Z8",
      "country": "CA",
      "phone": "4165337258",
      "lat": 43.649015,
      "lng": -79.420648,
      "price": 3,
      "reserve_url": "http://www.opentable.com/single.aspx?rid=108505",
      "mobile_reserve_url": "http://mobile.opentable.com/opentable/?restId=108505",
      "image_url": "https://www.opentable.com/img/restimages/108505.jpg"
    },
    {
      "id": 3637,
      "name": "North 44",
      "address": "2537 Yonge St.",
      "city": "Toronto",
      "state": "ON",
      "area": "Toronto / SW Ontario",
      "postal_code": "M4P 2H9",
      "country": "CA",
      "phone": "4164874897x1",
      "lat": 43.713,
      "lng": -79.3996,
      "price": 3,
      "reserve_url": "http://www.opentable.com/single.aspx?rid=3637",
      "mobile_reserve_url": "http://mobile.opentable.com/opentable/?restId=3637",
      "image_url": "https://www.opentable.com/img/restimages/3637.jpg"
    },
    {
      "id": 105922,
      "name": "Woods Restaurant \u0026 Bar",
      "address": "45 Colborne Street",
      "city": "Toronto",
      "state": "ON",
      "area": "Toronto / SW Ontario",
      "postal_code": "M5E 1E3",
      "country": "CA",
      "phone": "4162149918x",
      "lat": 43.648996,
      "lng": -79.375032,
      "price": 3,
      "reserve_url": "http://www.opentable.com/single.aspx?rid=105922",
      "mobile_reserve_url": "http://mobile.opentable.com/opentable/?restId=105922",
      "image_url": "https://www.opentable.com/img/restimages/105922.jpg"
    },
    {
      "id": 91948,
      "name": "Edulis Restaurant",
      "address": "169 Niagara Street",
      "city": "Toronto",
      "state": "ON",
      "area": "Toronto / SW Ontario",
      "postal_code": "M5V 1C9",
      "country": "CA",
      "phone": "4167034222",
      "lat": 43.641939,
      "lng": -79.406543,
      "price": 3,
      "reserve_url": "http://www.opentable.com/single.aspx?rid=91948",
      "mobile_reserve_url": "http://mobile.opentable.com/opentable/?restId=91948",
      "image_url": "https://www.opentable.com/img/restimages/91948.jpg"
    },
    {
      "id": 44791,
      "name": "Ginko Japanese Restaurant",
      "address": "655 Dixon Rd.",
      "city": "Toronto",
      "state": "ON",
      "area": "Toronto / SW Ontario",
      "postal_code": "M5H 3M7",
      "country": "CA",
      "phone": "4162488445",
      "lat": 43.6898,
      "lng": -79.578,
      "price": 3,
      "reserve_url": "http://www.opentable.com/single.aspx?rid=44791",
      "mobile_reserve_url": "http://mobile.opentable.com/opentable/?restId=44791",
      "image_url": "https://www.opentable.com/img/restimages/44791.jpg"
    },
    {
      "id": 75154,
      "name": "Lula Lounge",
      "address": "1585 Dundas West",
      "city": "Toronto",
      "state": "ON",
      "area": "Toronto / SW Ontario",
      "postal_code": "M6K 1T5",
      "country": "CA",
      "phone": "4165880307",
      "lat": 43.649767,
      "lng": -79.434577,
      "price": 3,
      "reserve_url": "http://www.opentable.com/single.aspx?rid=75154",
      "mobile_reserve_url": "http://mobile.opentable.com/opentable/?restId=75154",
      "image_url": "https://www.opentable.com/img/restimages/75154.jpg"
    },
    {
      "id": 14806,
      "name": "Il Fornello on King",
      "address": "214 King St. West",
      "city": "Toronto",
      "state": "ON",
      "area": "Toronto / SW Ontario",
      "postal_code": "M5H 3S6",
      "country": "CA",
      "phone": "4169772855",
      "lat": 43.647429,
      "lng": -79.386774,
      "price": 3,
      "reserve_url": "http://www.opentable.com/single.aspx?rid=14806",
      "mobile_reserve_url": "http://mobile.opentable.com/opentable/?restId=14806",
      "image_url": "https://www.opentable.com/img/restimages/14806.jpg"
    },
    {
      "id": 150661,
      "name": "Momofuku DAISHÅŒ - Toronto",
      "address": "190 University Ave",
      "city": "Toronto",
      "state": "ON",
      "area": "Toronto / SW Ontario",
      "postal_code": "M5H 0A3",
      "country": "CA",
      "phone": "6472538000",
      "lat": 43.649368,
      "lng": -79.385921,
      "price": 4,
      "reserve_url": "http://www.opentable.com/single.aspx?rid=150661",
      "mobile_reserve_url": "http://mobile.opentable.com/opentable/?restId=150661",
      "image_url": "https://www.opentable.com/img/restimages/150661.jpg"
    },
    {
      "id": 40507,
      "name": "360 The Restaurant at the CN Tower",
      "address": "301 Front St West",
      "city": "Toronto",
      "state": "ON",
      "area": "Toronto / SW Ontario",
      "postal_code": "M5V 2T6",
      "country": "CA",
      "phone": "4163625411x",
      "lat": 43.644011,
      "lng": -79.388449,
      "price": 4,
      "reserve_url": "http://www.opentable.com/single.aspx?rid=40507",
      "mobile_reserve_url": "http://mobile.opentable.com/opentable/?restId=40507",
      "image_url": "https://www.opentable.com/img/restimages/40507.jpg"
    },
    {
      "id": 112033,
      "name": "El Caballito Tequila Bar",
      "address": "220 King Street West",
      "city": "Toronto",
      "state": "ON",
      "area": "Toronto / SW Ontario",
      "postal_code": "M5H 1K4",
      "country": "CA",
      "phone": "4166289838x",
      "lat": 43.647258,
      "lng": -79.38695,
      "price": 2,
      "reserve_url": "http://www.opentable.com/single.aspx?rid=112033",
      "mobile_reserve_url": "http://mobile.opentable.com/opentable/?restId=112033",
      "image_url": "https://www.opentable.com/img/restimages/112033.jpg"
    },
    {
      "id": 114148,
      "name": "Stratus",
      "address": "79 Wellington St. West",
      "city": "Toronto",
      "state": "ON",
      "area": "Toronto / SW Ontario",
      "postal_code": "M5K 1J5",
      "country": "CA",
      "phone": "4168651924x",
      "lat": 43.646989,
      "lng": -79.381283,
      "price": 2,
      "reserve_url": "http://www.opentable.com/single.aspx?rid=114148",
      "mobile_reserve_url": "http://mobile.opentable.com/opentable/?restId=114148",
      "image_url": "https://www.opentable.com/img/restimages/114148.jpg"
    },
    {
      "id": 108499,
      "name": "Trattoria Taverniti",
      "address": "591 College Street",
      "city": "Toronto",
      "state": "ON",
      "area": "Toronto / SW Ontario",
      "postal_code": "M6G 1B2",
      "country": "CA",
      "phone": "4165370078x",
      "lat": 43.655204,
      "lng": -79.413547,
      "price": 2,
      "reserve_url": "http://www.opentable.com/single.aspx?rid=108499",
      "mobile_reserve_url": "http://mobile.opentable.com/opentable/?restId=108499",
      "image_url": "https://www.opentable.com/img/restimages/108499.jpg"
    },
    {
      "id": 70072,
      "name": "The Old Spaghetti Factory - Toronto",
      "address": "54 The Explanade,",
      "city": "Toronto",
      "state": "ON",
      "area": "Toronto / SW Ontario",
      "postal_code": "M5E 1A6",
      "country": "CA",
      "phone": "4168649761",
      "lat": 43.646911,
      "lng": -79.374339,
      "price": 2,
      "reserve_url": "http://www.opentable.com/single.aspx?rid=70072",
      "mobile_reserve_url": "http://mobile.opentable.com/opentable/?restId=70072",
      "image_url": "https://www.opentable.com/img/restimages/70072.jpg"
    },
    {
      "id": 61609,
      "name": "Against the Grain Urban Tavern-Corus Quay",
      "address": "25 Dockside Drive",
      "city": "Toronto",
      "state": "ON",
      "area": "Toronto / SW Ontario",
      "postal_code": "M5A 0B5",
      "country": "CA",
      "phone": "6473441562",
      "lat": 43.643513,
      "lng": -79.366927,
      "price": 2,
      "reserve_url": "http://www.opentable.com/single.aspx?rid=61609",
      "mobile_reserve_url": "http://mobile.opentable.com/opentable/?restId=61609",
      "image_url": "https://www.opentable.com/img/restimages/61609.jpg"
    },
    {
      "id": 118675,
      "name": "Lisa Marie",
      "address": "638 Queen Street West",
      "city": "Toronto",
      "state": "ON",
      "area": "Toronto / SW Ontario",
      "postal_code": "M6J 1E3",
      "country": "CA",
      "phone": "6477486822x",
      "lat": 43.646076,
      "lng": -79.409564,
      "price": 2,
      "reserve_url": "http://www.opentable.com/single.aspx?rid=118675",
      "mobile_reserve_url": "http://mobile.opentable.com/opentable/?restId=118675",
      "image_url": "https://www.opentable.com/img/restimages/118675.jpg"
    },
    {
      "id": 115321,
      "name": "Playa Cabana",
      "address": "111 Dupont St",
      "city": "Toronto",
      "state": "ON",
      "area": "Toronto / SW Ontario",
      "postal_code": "M5R 1V4",
      "country": "CA",
      "phone": "4169293911",
      "lat": 43.676026,
      "lng": -79.401205,
      "price": 2,
      "reserve_url": "http://www.opentable.com/single.aspx?rid=115321",
      "mobile_reserve_url": "http://mobile.opentable.com/opentable/?restId=115321",
      "image_url": "https://www.opentable.com/img/restimages/115321.jpg"
    },
    {
      "id": 89974,
      "name": "Kirei Sushi Bar",
      "address": "81 Church Street",
      "city": "Toronto",
      "state": "ON",
      "area": "Toronto / SW Ontario",
      "postal_code": "M5C2G2",
      "country": "CA",
      "phone": "4162149393",
      "lat": 43.651765,
      "lng": -79.375018,
      "price": 2,
      "reserve_url": "http://www.opentable.com/single.aspx?rid=89974",
      "mobile_reserve_url": "http://mobile.opentable.com/opentable/?restId=89974",
      "image_url": "https://www.opentable.com/img/restimages/89974.jpg"
    },
    {
      "id": 63499,
      "name": "Fin Izakaya",
      "address": "55 Eglinton Ave. East",
      "city": "Toronto",
      "state": "ON",
      "area": "Toronto / SW Ontario",
      "postal_code": "M4P 1G8",
      "country": "CA",
      "phone": "6473473864",
      "lat": 43.707061,
      "lng": -79.396159,
      "price": 2,
      "reserve_url": "http://www.opentable.com/single.aspx?rid=63499",
      "mobile_reserve_url": "http://mobile.opentable.com/opentable/?restId=63499",
      "image_url": "https://www.opentable.com/img/restimages/63499.jpg"
    },
    {
      "id": 17146,
      "name": "Harbour Sixty",
      "address": "60 Harbour Street",
      "city": "Toronto",
      "state": "ON",
      "area": "Toronto / SW Ontario",
      "postal_code": "M5J 1B7",
      "country": "CA",
      "phone": "4167772111",
      "lat": 43.642422,
      "lng": -79.37642,
      "price": 4,
      "reserve_url": "http://www.opentable.com/single.aspx?rid=17146",
      "mobile_reserve_url": "http://mobile.opentable.com/opentable/?restId=17146",
      "image_url": "https://www.opentable.com/img/restimages/17146.jpg"
    },
    {
      "id": 113926,
      "name": "Drake One Fifty",
      "address": "150 York Street",
      "city": "Toronto",
      "state": "ON",
      "area": "Toronto / SW Ontario",
      "postal_code": "M5H 3S5",
      "country": "CA",
      "phone": "4163636150x",
      "lat": 43.649354,
      "lng": -79.384684,
      "price": 4,
      "reserve_url": "http://www.opentable.com/single.aspx?rid=113926",
      "mobile_reserve_url": "http://mobile.opentable.com/opentable/?restId=113926",
      "image_url": "https://www.opentable.com/img/restimages/113926.jpg"
    },
    {
      "id": 5970,
      "name": "Auberge du Pommier",
      "address": "4150 Yonge Street",
      "city": "Toronto",
      "state": "ON",
      "area": "Toronto / SW Ontario",
      "postal_code": "M2P 2C6",
      "country": "CA",
      "phone": "4162222220x",
      "lat": 43.746912,
      "lng": -79.407363,
      "price": 4,
      "reserve_url": "http://www.opentable.com/single.aspx?rid=5970",
      "mobile_reserve_url": "http://mobile.opentable.com/opentable/?restId=5970",
      "image_url": "https://www.opentable.com/img/restimages/5970.jpg"
    },
    {
      "id": 115669,
      "name": "Cafe Bar Pasta Inc.",
      "address": "1588 Dundas St W",
      "city": "Toronto",
      "state": "ON",
      "area": "Toronto / SW Ontario",
      "postal_code": "M6K 1T8",
      "country": "CA",
      "phone": "4165344794",
      "lat": 43.649959,
      "lng": -79.434732,
      "price": 2,
      "reserve_url": "http://www.opentable.com/single.aspx?rid=115669",
      "mobile_reserve_url": "http://mobile.opentable.com/opentable/?restId=115669",
      "image_url": "https://www.opentable.com/img/restimages/115669.jpg"
    },
    {
      "id": 113791,
      "name": "Union Social Eatery St. Clair",
      "address": "21 St Clair West",
      "city": "Toronto",
      "state": "ON",
      "area": "Toronto / SW Ontario",
      "postal_code": "M4V 1K6",
      "country": "CA",
      "phone": "4169013456x",
      "lat": 43.687826,
      "lng": -79.394971,
      "price": 2,
      "reserve_url": "http://www.opentable.com/single.aspx?rid=113791",
      "mobile_reserve_url": "http://mobile.opentable.com/opentable/?restId=113791",
      "image_url": "https://www.opentable.com/img/restimages/113791.jpg"
    }
  ]
}
